"","spp","CommonName","Source","Country","Site","lat","lon","stockid","CollectionYear","MarkerName","n","bp","He","Hese","Pi","Pise","file","maxlength"
"1","Abudefduf saxatilis","Seargeant-major","Piñeros et al. 2015 Evol. Biol. 42:235-249","Mexico","Antón Lizardo",19.0992222222222,-95.9416944444445,NA,"","cytb, control region",18,"1250",0.99,0.0047,0.008,9e-04,"mtdna102",22.9
"2","Abudefduf saxatilis","Seargeant-major","Piñeros et al. 2015 Evol. Biol. 42:235-249","Mexico","Contoy Island",21.4720555555556,-86.7888611111111,NA,"","cytb, control region",13,"1250",0.99,0.0111,0.007,0.0011,"mtdna102",22.9
"3","Abudefduf saxatilis","Seargeant-major","Piñeros et al. 2015 Evol. Biol. 42:235-249","Mexico","Cozumel Island",20.4406944444444,-87.0022777777778,NA,"","cytb, control region",17,"1250",1,0.0049,0.006,7e-04,"mtdna102",22.9
"4","Abudefduf saxatilis","Seargeant-major","Piñeros et al. 2015 Evol. Biol. 42:235-249","Mexico","Lobos Island",21.4887222222222,-97.2270833333333,NA,"","cytb, control region",27,"1250",0.98,0.0192,0.009,0.001,"mtdna102",22.9
"5","Abudefduf saxatilis","Seargeant-major","Piñeros et al. 2015 Evol. Biol. 42:235-249","Mexico","Tuxpan",21.0270277777778,-97.1991388888889,NA,"","cytb, control region",16,"1250",0.99,0.0075,0.005,8e-04,"mtdna102",22.9
"6","Abudefduf saxatilis","Seargeant-major","Piñeros et al. 2015 Evol. Biol. 42:235-249","Mexico","Veracruz",19.1995833333333,-96.0694444444444,NA,"","cytb, control region",12,"1250",1,0.0087,0.007,0.0012,"mtdna102",22.9
"7","Abudefduf saxatilis","Seargeant-major","Piñeros et al. 2015 Evol. Biol. 42:235-249","Mexico","Xcalak",18.3259722222222,-87.8156111111111,NA,"","cytb, control region",15,"1250",1,0.0052,0.007,0.001,"mtdna102",22.9
"8","Acanthocybium solandri","Wahoo","Garber, Tringali & Franks 2005","","Caribbean Sea off the Cayman Islands",19.303,-75,NA,"2001","control region",23,"890",1,NA,0.052,NA,"mtdna101",250
"9","Acanthocybium solandri","Wahoo","Garber, Tringali & Franks 2005","Bahamas","Bimini, Bahamas",25.739,-79.0347222222222,NA,"1997/1998","control region",40,"890",1,NA,0.05,NA,"mtdna101",250
"10","Acanthocybium solandri","Wahoo","Garber, Tringali & Franks 2005","United States","Atlantic Ocean off North Carolina",34.8,-70,NA,"2000/2001","control region",23,"890",1,NA,0.053,NA,"mtdna101",250
"11","Acanthocybium solandri","Wahoo","Garber, Tringali & Franks 2005","United States","East Central Florida",28.304,-75,NA,"2001","control region",30,"890",1,NA,0.055,NA,"mtdna101",250
"12","Acanthocybium solandri","Wahoo","Garber, Tringali & Franks 2005","United States","Northern Gulf of Mexico",29.229,-84,NA,"1998-2000","control region",54,"890",0.999,NA,0.055,NA,"mtdna101",250
"13","Acanthocybium solandri","Wahoo","Garber, Tringali & Franks 2005","United States","Southern tip of Florida",25.205,-76,NA,"2000/2001","control region",21,"890",0.995,NA,0.049,NA,"mtdna101",250
"14","Acanthocybium solandri","Wahoo","Garber, Tringali & Franks 2005","USA","Central Pacific Ocean off Hawaiian Islands",22,-158,NA,"2000","control region",40,"890",1,NA,0.055,NA,"mtdna101",250
"15","Acanthopagrus schlegelii","Blackhead seabream","Jean et al. 1998","Taiwan","Fulung",25.066,121.133333333333,NA,"","5' D-loop, 3' D-loop, tRNAPhe, 5' 12S rRNAPhe",7,"717",0.8792,NA,0.00381,NA,"mtdna101",50
"16","Acanthopagrus schlegelii","Blackhead seabream","Jean et al. 1998","Taiwan","Matsu",26.164,120,NA,"","5' D-loop, 3' D-loop, tRNAPhe, 5' 12S rRNAPhe",6,"717",0.9091,NA,0.00399,NA,"mtdna101",50
"17","Acanthopagrus schlegelii","Blackhead seabream","Jean et al. 1998","Taiwan","Penghu",23.554,119.083333333333,NA,"","5' D-loop, 3' D-loop, tRNAPhe, 5' 12S rRNAPhe",6,"717",0.9091,NA,0.00269,NA,"mtdna101",50
"18","Acanthopagrus schlegelii","Blackhead seabream","Jean et al. 1998","Taiwan","Taihsi",23.655,120.033333333333,NA,"","5' D-loop, 3' D-loop, tRNAPhe, 5' 12S rRNAPhe",6,"717",0.8485,NA,0.00232,NA,"mtdna101",50
"19","Acanthopagrus schlegelii","Blackhead seabream","Jean et al. 1998","Taiwan","Tanshui",25.165,121.033333333333,NA,"","5' D-loop, 3' D-loop, tRNAPhe, 5' 12S rRNAPhe",6,"717",0.9091,NA,0.00232,NA,"mtdna101",50
"20","Acanthopagrus schlegelii","Blackhead seabream","Jean et al. 1998","Taiwan","Tungkang",22.447,120.1,NA,"","5' D-loop, 3' D-loop, tRNAPhe, 5' 12S rRNAPhe",6,"717",0.7879,NA,0.00316,NA,"mtdna101",50
"21","Acanthopagrus schlegelii","Blackhead seabream","Jean et al. 1998","Taiwan","Wuchi",24.187,120.1,NA,"","5' D-loop, 3' D-loop, tRNAPhe, 5' 12S rRNAPhe",6,"717",0.8485,NA,0.00274,NA,"mtdna101",50
"22","Acanthurus nigrofuscus","Brown Surgeonfish","Eble et al. 2011 Journal of Marine Biology 2011:518516","Costa Rica","Cocos Islands",5.08361111111111,87.0019444444444,NA,"2008","cytb",32,"694",0.88,0.00707,0.003,0.000336,"mtdna101",21
"23","Acanthurus nigrofuscus","Brown Surgeonfish","Eble et al. 2011 Journal of Marine Biology 2011:518516","French Polynesia","Moorea",-17.0841666666667,149.134166666667,NA,"2008","cytb",31,"694",0.78,0.0144,0.003,0.000341,"mtdna101",21
"24","Acanthurus nigrofuscus","Brown Surgeonfish","Eble et al. 2011 Journal of Marine Biology 2011:518516","Indian Ocean","Christmas Island",-10.0688888888889,105.100833333333,NA,"2008","cytb",51,"694",0.85,0.0042,0.0025,0.000224,"mtdna101",21
"25","Acanthurus nigrofuscus","Brown Surgeonfish","Eble et al. 2011 Journal of Marine Biology 2011:518516","Indian Ocean","Diego Garcia",-7.05027777777778,72.0669444444444,NA,"2008","cytb",32,"694",0.85,0.00884,0.003,0.000301,"mtdna101",21
"26","Acanthurus nigrofuscus","Brown Surgeonfish","Eble et al. 2011 Journal of Marine Biology 2011:518516","Indian Ocean","Seychelles",-4.10027777777778,55.0680555555556,NA,"2008","cytb",32,"694",0.72,0.0124,0.0017,0.000212,"mtdna101",21
"27","Acanthurus nigrofuscus","Brown Surgeonfish","Eble et al. 2011 Journal of Marine Biology 2011:518516","Pacific Ocean","Kiritimati",1.135,-157.066666666667,NA,"2008","cytb",35,"694",0.89,0.00676,0.0032,0.000338,"mtdna101",21
"28","Acanthurus nigrofuscus","Brown Surgeonfish","Eble et al. 2011 Journal of Marine Biology 2011:518516","South Pacific Ocean","Fiji",-18,179,NA,"2008","cytb",30,"694",0.91,0.00548,0.0031,0.000365,"mtdna101",21
"29","Acanthurus nigrofuscus","Brown Surgeonfish","Eble et al. 2011 Journal of Marine Biology 2011:518516","USA","French Frigate Shoals",23.1177777777778,-166.017777777778,NA,"2006","cytb",33,"694",0.72,0.0139,0.0021,0.000226,"mtdna101",21
"30","Acanthurus nigrofuscus","Brown Surgeonfish","Eble et al. 2011 Journal of Marine Biology 2011:518516","USA","Gardner Pinnacles",24.1525,-167.1525,NA,"2006","cytb",25,"694",0.72,0.016,0.0021,0.00028,"mtdna101",21
"31","Acanthurus nigrofuscus","Brown Surgeonfish","Eble et al. 2011 Journal of Marine Biology 2011:518516","USA","Hawaii Island",19.085,-155.083333333333,NA,"2006","cytb",33,"694",0.65,0.0157,0.0022,0.000261,"mtdna101",21
"32","Acanthurus nigrofuscus","Brown Surgeonfish","Eble et al. 2011 Journal of Marine Biology 2011:518516","USA","Kauai",22.0022222222222,-159.083333333333,NA,"2006","cytb",26,"694",0.81,0.0118,0.0023,0.000294,"mtdna101",21
"33","Acanthurus nigrofuscus","Brown Surgeonfish","Eble et al. 2011 Journal of Marine Biology 2011:518516","USA","Maui",20.1333333333333,-156.050833333333,NA,"2006","cytb",36,"694",0.77,0.01,0.003,3e-04,"mtdna101",21
"34","Acanthurus nigrofuscus","Brown Surgeonfish","Eble et al. 2011 Journal of Marine Biology 2011:518516","USA","Molokai",21.0175,-157.000833333333,NA,"2006","cytb",29,"694",0.71,0.0149,0.0024,0.000297,"mtdna101",21
"35","Acanthurus nigrofuscus","Brown Surgeonfish","Eble et al. 2011 Journal of Marine Biology 2011:518516","USA","Nihoa",23.0016666666667,-161.150555555556,NA,"2006","cytb",40,"694",0.73,0.00949,0.0026,0.000253,"mtdna101",21
"36","Acanthurus nigrofuscus","Brown Surgeonfish","Eble et al. 2011 Journal of Marine Biology 2011:518516","USA","Oahu",21.0683333333333,-157.152222222222,NA,"2006","cytb",39,"694",0.7,0.0112,0.0019,0.000208,"mtdna101",21
"37","Acanthurus nigrofuscus","Brown Surgeonfish","Eble et al. 2011 Journal of Marine Biology 2011:518516","USA","Pearl & Hermes Reef",27.1333333333333,-175.134722222222,NA,"2006","cytb",20,"694",0.87,0.0134,0.0045,0.000604,"mtdna101",21
"38","Acanthurus nigrofuscus","Brown Surgeonfish","Eble et al. 2011 Journal of Marine Biology 2011:518516","Western Pacific Ocean","Palau",7.05138888888889,134.068333333333,NA,"2008","cytb",36,"694",0.9,0.005,0.0028,3e-04,"mtdna101",21
"39","Acanthurus nigroris","Bluelined surgeonfish","DiBattista et al. 2011 Journal of Marine Biology 2011:839134","Pacific Ocean","American Samoa",-14.05,-170,NA,"2007","cytb",23,"797",0.94,0.00709,0.0054,0.000646,"mtdna101",25
"40","Acanthurus nigroris","Bluelined surgeonfish","DiBattista et al. 2011 Journal of Marine Biology 2011:839134","Pacific Ocean","Line Islands",-2,-156.083333333333,NA,"2007","cytb",24,"797",0.95,0.00592,0.0053,0.000633,"mtdna101",25
"41","Acanthurus nigroris","Bluelined surgeonfish","DiBattista et al. 2011 Journal of Marine Biology 2011:839134","Pacific Ocean","Marshall Islands",7.00166666666667,-171.035,NA,"2007","cytb",19,"797",1,0.0039,0.0065,0.000849,"mtdna101",25
"42","Acanthurus nigroris","Bluelined surgeonfish","DiBattista et al. 2011 Journal of Marine Biology 2011:839134","Pacific Ocean","Society Islands",-17.0841666666667,-149.134166666667,NA,"2007","cytb",32,"797",0.98,0.00212,0.0073,0.000707,"mtdna101",25
"43","Acanthurus nigroris","Bluelined surgeonfish","DiBattista et al. 2011 Journal of Marine Biology 2011:839134","USA","French Frigate Shoals",23.1177777777778,-166.017777777778,NA,"2007","cytb",33,"797",0.42,0.0174,0.00064,0.000108,"mtdna101",25
"44","Acanthurus nigroris","Bluelined surgeonfish","DiBattista et al. 2011 Journal of Marine Biology 2011:839134","USA","Gardner Pinnacles",24.1525,-167.1525,NA,"2007","cytb",27,"797",0.57,0.0117,8e-04,0.000139,"mtdna101",25
"45","Acanthurus nigroris","Bluelined surgeonfish","DiBattista et al. 2011 Journal of Marine Biology 2011:839134","USA","Hawaii, Big Island",19.085,-155.083333333333,NA,"2007","cytb",32,"797",0.66,0.015,0.0012,0.000166,"mtdna101",25
"46","Acanthurus nigroris","Bluelined surgeonfish","DiBattista et al. 2011 Journal of Marine Biology 2011:839134","USA","Johnston Atoll",16.1180555555556,-169.083611111111,NA,"2007","cytb",34,"797",0.22,0.016,0.00037,7.6e-05,"mtdna101",25
"47","Acanthurus nigroris","Bluelined surgeonfish","DiBattista et al. 2011 Journal of Marine Biology 2011:839134","USA","Kauai",22.0022222222222,-159.083333333333,NA,"2007","cytb",34,"797",0.27,0.0158,4e-04,8e-05,"mtdna101",25
"48","Acanthurus nigroris","Bluelined surgeonfish","DiBattista et al. 2011 Journal of Marine Biology 2011:839134","USA","Kure Atoll",28.0669444444444,-178.050833333333,NA,"2007","cytb",41,"797",0.31,0.0145,0.00054,8.8e-05,"mtdna101",25
"49","Acanthurus nigroris","Bluelined surgeonfish","DiBattista et al. 2011 Journal of Marine Biology 2011:839134","USA","Laysan Island",25.1183333333333,-171.1175,NA,"2007","cytb",46,"797",0.58,0.069,0.00086,0.00074,"mtdna101",25
"50","Acanthurus nigroris","Bluelined surgeonfish","DiBattista et al. 2011 Journal of Marine Biology 2011:839134","USA","Lisianski Island",26.0016666666667,-173.151666666667,NA,"2007","cytb",39,"797",0.58,0.0131,0.001,0.000133,"mtdna101",25
"51","Acanthurus nigroris","Bluelined surgeonfish","DiBattista et al. 2011 Journal of Marine Biology 2011:839134","USA","Maro Reef",25.0669444444444,-170.085833333333,NA,"2007","cytb",35,"797",0.62,0.108,0.00095,0.000135,"mtdna101",25
"52","Acanthurus nigroris","Bluelined surgeonfish","DiBattista et al. 2011 Journal of Marine Biology 2011:839134","USA","Midway Island",28.0333333333333,-177.051388888889,NA,"2007","cytb",30,"797",0.58,0.0146,0.00097,0.000148,"mtdna101",25
"53","Acanthurus nigroris","Bluelined surgeonfish","DiBattista et al. 2011 Journal of Marine Biology 2011:839134","USA","Nihoa",23.0016666666667,-161.150555555556,NA,"2007","cytb",32,"797",0.63,0.0161,0.00086,0.000133,"mtdna101",25
"54","Acanthurus nigroris","Bluelined surgeonfish","DiBattista et al. 2011 Journal of Marine Biology 2011:839134","USA","Oahu",21.0683333333333,-157.152222222222,NA,"2007","cytb",29,"797",0.54,0.0173,0.00082,0.000136,"mtdna101",25
"55","Acanthurus nigroris","Bluelined surgeonfish","DiBattista et al. 2011 Journal of Marine Biology 2011:839134","USA","Pearl & Hermes Reef",27.1333333333333,-175.134722222222,NA,"2007","cytb",29,"797",0.64,0.0106,0.00096,0.00015,"mtdna101",25
"56","Acanthurus triostegus","Convict surgeonfish","Otwoma et al. 2018 J. Fish Biol. 93:597-608 ","Kenya","Kiunga",-1.746577,41.49137,NA,"2015","ATPase 6, 8",9,"842",0.92,NA,0.006,NA,"mtdna102",27
"57","Acanthurus triostegus","Convict surgeonfish","Otwoma et al. 2018 J. Fish Biol. 93:597-608 ","Kenya","Mobasa",-4.067377,39.702996,NA,"2015","ATPase 6, 8",6,"842",1,NA,0.008,NA,"mtdna102",27
"58","Acanthurus triostegus","Convict surgeonfish","Otwoma et al. 2018 J. Fish Biol. 93:597-608 ","Madagascar","Anakao",-23.655027,43.641767,NA,"2015","ATPase 6, 8",9,"842",0.89,NA,0.005,NA,"mtdna102",27
"59","Acanthurus triostegus","Convict surgeonfish","Otwoma et al. 2018 J. Fish Biol. 93:597-608 ","Tanzania","Dar Es Salaam",-6.749797,39.300974,NA,"2015","ATPase 6, 8",7,"842",1,NA,0.009,NA,"mtdna102",27
"60","Acanthurus triostegus","Convict surgeonfish","Otwoma et al. 2018 J. Fish Biol. 93:597-608 ","Tanzania","Mtwara",-10.255964,40.162882,NA,"2015","ATPase 6, 8",4,"842",1,NA,0.005,NA,"mtdna102",27
"61","Aetobatus narinari","Spotted eagle ray","Sellas et al. 2015 Journal of Heredity 266-275","Cuba","Cuba",21.651703,-83.102581,NA,"2013","cytb",19,"580",0.561,NA,0.0024,NA,"mtdna102",330
"62","Aetobatus narinari","Spotted eagle ray","Sellas et al. 2015 Journal of Heredity 266-275","Mexico","Mexico",19.53495,-92.177222,NA,"2009-2013","cytb",96,"580",0.536,NA,0.0022,NA,"mtdna102",330
"63","Aetobatus narinari","Spotted eagle ray","Sellas et al. 2015 Journal of Heredity 266-275","USA","Florida",27.344437,-82.567594,NA,"2009-2011","cytb",169,"580",0.71,NA,0.0024,NA,"mtdna102",330
"64","Alopias vulpinus","Thresher","Vella, Vella & Schembri (2017) Marine Genomics 36:17-23","","Malta",35.951019,14.361835,NA,"2003-2017","ND2",11,"990",0.182,0.144,2e-04,3e-04,"mtdna103",573.3
"65","Amblyraja radiata","Starry ray","Chevolot et al. 2007 Mar Biol 151:1275-1286","Eastern Atlantic","Central North Sea",56.13,4.81,NA,"2003","cytb",11,"290",0.473,NA,0.0018,NA,"mtdna101",105
"66","Amblyraja radiata","Starry ray","Chevolot et al. 2007 Mar Biol 151:1275-1286","Eastern Atlantic","Kattegat",57.5,10.35,NA,"2003","cytb",22,"290",0.789,NA,0.006,NA,"mtdna101",105
"67","Amblyraja radiata","Starry ray","Chevolot et al. 2007 Mar Biol 151:1275-1286","Eastern Atlantic","Off Haugesund",59.37,2.92,NA,"2003","cytb",15,"290",0.771,NA,0.0039,NA,"mtdna101",105
"68","Amblyraja radiata","Starry ray","Chevolot et al. 2007 Mar Biol 151:1275-1286","Iceland","Eyjafjordur",66.16,-18.43,NA,"2004","cytb",19,"290",0.784,NA,0.0038,NA,"mtdna101",105
"69","Amblyraja radiata","Starry ray","Chevolot et al. 2007 Mar Biol 151:1275-1286","Iceland","Hunafloi",65.57,-21.08,NA,"2004","cytb",27,"290",0.738,NA,0.0047,NA,"mtdna101",105
"70","Amblyraja radiata","Starry ray","Chevolot et al. 2007 Mar Biol 151:1275-1286","Iceland","Isafjardarjup",66.28,-23.2,NA,"2003","cytb",17,"290",0.75,NA,0.003,NA,"mtdna101",105
"71","Amblyraja radiata","Starry ray","Chevolot et al. 2007 Mar Biol 151:1275-1286","Iceland","Off bistlfjordur",66.91,-13.48,NA,"2003","cytb",24,"290",0.916,NA,0.0071,NA,"mtdna101",105
"72","Amblyraja radiata","Starry ray","Chevolot et al. 2007 Mar Biol 151:1275-1286","Iceland","Off Bjargtangar 1",65.74,-27.4,NA,"2003","cytb",32,"290",0.802,NA,0.055,NA,"mtdna101",105
"73","Amblyraja radiata","Starry ray","Chevolot et al. 2007 Mar Biol 151:1275-1286","Iceland","Off Bjargtangar 2",65.67,-27.56,NA,"2003","cytb",22,"290",0.749,NA,0.006,NA,"mtdna101",105
"74","Amblyraja radiata","Starry ray","Chevolot et al. 2007 Mar Biol 151:1275-1286","Iceland","Off Hofn",63.91,-12.53,NA,"2003","cytb",17,"290",0.806,NA,0.0036,NA,"mtdna101",105
"75","Amblyraja radiata","Starry ray","Chevolot et al. 2007 Mar Biol 151:1275-1286","Iceland","Oxafjordur",66.28,-16.28,NA,"2004","cytb",20,"290",0.916,NA,0.0071,NA,"mtdna101",105
"76","Amblyraja radiata","Starry ray","Chevolot et al. 2007 Mar Biol 151:1275-1286","Iceland","Skagafjordur",65.94,-16.79,NA,"2004","cytb",19,"290",0.784,NA,0.0058,NA,"mtdna101",105
"77","Amblyraja radiata","Starry ray","Chevolot et al. 2007 Mar Biol 151:1275-1286","Iceland","Skjalfandi",66.14,-17.54,NA,"2004","cytb",25,"290",0.743,NA,0.0056,NA,"mtdna101",105
"78","Amblyraja radiata","Starry ray","Chevolot et al. 2007 Mar Biol 151:1275-1286","Newfoundland","Newfoundland",46.07,-47.37,NA,"2004","cytb",30,"290",0.834,NA,0.007,NA,"mtdna101",105
"79","Ammodytes personatus","Pacific sandlance","Kim Park Kim 2006","South Korea","Jumunjin, East Sea",37.979,128.8893,NA,"2005","control region",24,"750",1,0.0245,0.0255,0.00267,"mtdna101",15
"80","Ammodytes personatus","Pacific sandlance","Kim Park Kim 2006","South Korea","Jumunjin, East Sea",37.979,128.8893,NA,"2005","16S",29,"587",0.32,0.020797878,0.0012,0.000185695,"mtdna102",15
"81","Ammodytes personatus","Pacific sandlance","Kim Park Kim 2006","South Korea","Sangju, South Sea",34.814,128.285453,NA,"2005","control region",25,"750",0.99,0.0028,0.0097,0.00106,"mtdna101",15
"82","Ammodytes personatus","Pacific sandlance","Kim Park Kim 2006","South Korea","Sangju, South Sea",34.814,128.285453,NA,"2005","16S",28,"587",0.444,0.022299904,9e-04,0.000170084,"mtdna102",15
"83","Ammodytes personatus","Pacific sandlance","Kim Park Kim 2006","South Korea","Taean, West Sea",36.756,125.995612,NA,"2005","control region",24,"750",1,0.0245,0.0099,0.00106,"mtdna101",15
"84","Ammodytes personatus","Pacific sandlance","Kim Park Kim 2006","South Korea","Taean, West Sea",36.756,125.995612,NA,"2005","16S",30,"587",0.467,0.020448309,0.0011,0.000182574,"mtdna102",15
"85","Ammodytes personatus","Pacific sandlance","Deng et al. 2019 Journal of the Marine Biological Association of the United Kingdom 1-8","China","Dalian",38.939716,121.63307,NA,"2009","ATP6",21,"644",0.9714,0.006546537,0.0054,0.000698297,"mtdna102",15
"86","Ammodytes personatus","Pacific sandlance","Deng et al. 2019 Journal of the Marine Biological Association of the United Kingdom 1-8","China","Qingdao",36.033363,120.436729,NA,"2015","ATP6",30,"644",0.9701,0.003560197,0.0057,0.000602495,"mtdna102",15
"87","Ammodytes personatus","Pacific sandlance","Deng et al. 2019 Journal of the Marine Biological Association of the United Kingdom 1-8","Japan","Aichi Prefecture",34.750935,137.191387,NA,"2005","ATP6",24,"644",0.9819,0.003755884,0.0058,0.000694022,"mtdna102",15
"88","Ammodytes personatus","Pacific sandlance","Deng et al. 2019 Journal of the Marine Biological Association of the United Kingdom 1-8","Japan","Aomori Prefecture",40.931241,140.787853,NA,"2009","ATP6",24,"644",0.9783,0.00481733,NA,NA,"mtdna102",15
"89","Ammodytes personatus","Pacific sandlance","Deng et al. 2019 Journal of the Marine Biological Association of the United Kingdom 1-8","Japan","Cape Soya",45.523053,141.936058,NA,"2005","ATP6",21,"644",0.9952,0.003600595,NA,NA,"mtdna102",15
"90","Ammodytes personatus","Pacific sandlance","Deng et al. 2019 Journal of the Marine Biological Association of the United Kingdom 1-8","Japan","Fukuoka",33.624171,130.357348,NA,"2005","ATP6",21,"644",0.981,0.004909903,0.0068,0.00085105,"mtdna102",15
"91","Ammodytes personatus","Pacific sandlance","Deng et al. 2019 Journal of the Marine Biological Association of the United Kingdom 1-8","Japan","Sendai Bay",38.034484,141.046457,NA,"2006","ATP6",22,"644",0.987,0.003731013,NA,NA,"mtdna102",15
"92","Ammodytes personatus","Pacific sandlance","Deng et al. 2019 Journal of the Marine Biological Association of the United Kingdom 1-8","Japan","Seto Naikai",34.132318,133.245432,NA,"2005","ATP6",22,"644",0.974,0.00588434,0.0062,0.000767523,"mtdna102",15
"93","Amphiprion akallopisos","Skunk clownfish","Huyghe & Kochzius 2018 PLoS ONE 13:e0193825","Mozambique","Nacala",-14.555969,40.667823,NA,"","control region",31,"337",0.503,NA,0.0027,NA,"mtdna102",11
"94","Amphiprion akallopisos","Skunk clownfish","Huyghe & Kochzius 2018 PLoS ONE 13:e0193825","Mozambique","Pemba",-12.974445,40.499531,NA,"","control region",35,"337",0.77,NA,0.0064,NA,"mtdna102",11
"95","Amphiprion akallopisos","Skunk clownfish","Huyghe & Kochzius 2018 PLoS ONE 13:e0193825","Mozambique","Tofo",-23.852385,35.546061,NA,"","control region",8,"337",0.25,NA,8e-04,NA,"mtdna102",11
"96","Amphiprion latezonatus","Wide-band anemonefish","Steinberg et al. 2016 Coral Reefs 35:959-970","Australia","Lord Howe Island",-31.546103,159.083156,NA,"","D-loop",33,"316",0.742,0.01271,0.00612,0.00069,"mtdna102",14
"97","Amphiprion latezonatus","Wide-band anemonefish","Steinberg et al. 2016 Coral Reefs 35:959-970","Australia","Norfolk Island",-29.03932,167.943606,NA,"","D-loop",31,"316",0.703,0.01652,0.00444,0.00056,"mtdna102",14
"98","Amphiprion latezonatus","Wide-band anemonefish","Steinberg et al. 2016 Coral Reefs 35:959-970","Australia","North Solitary Island",-29.91934,153.392455,NA,"","D-loop",34,"316",0.75,0.01372,0.00463,0.00055,"mtdna102",14
"99","Amphiprion latezonatus","Wide-band anemonefish","Steinberg et al. 2016 Coral Reefs 35:959-970","Australia","Sunshine Coast",-26.411,153.1487,NA,"","D-loop",7,"316",0.95,0.03893,0.00512,0.00148,"mtdna102",14
"100","Amphiprion melanopus","Fire clownfish","Drew et. al 2008 Conservation Biology 22(4):965-975","Fiji","Central Fiji",-17.3,178.9,NA,"","control region",36,"384",NA,NA,0.02,0.001666667,"mtdna101",12
"101","Amphiprion melanopus","Fire clownfish","Drew et. al 2008 Conservation Biology 22(4):965-975","Papua New Guinea","Milne Bay",-9.02,149.15,NA,"","control region",26,"384",NA,NA,0.021,0.001961161,"mtdna101",12
"102","Amphiprion melanopus","Fire clownfish","Drew et. al 2008 Conservation Biology 22(4):965-975","Solomon Islands","Nudha Islands",-9.5,160.8,NA,"","control region",11,"384",NA,NA,0.02,0.003015113,"mtdna101",12
"103","Anoplopoma fimbria","Sablefish","Tripp-Valdez et. al 2012 Journal of Applied Ichthyology 28:516-523","Mexico","SQ",30.4416666666667,-116.430833333333,NA,"","cytochrome c oxidase subunit I",15,"353",0.371,0.03950443,0.0015,0.000180739,"mtdna101",120
"104","Anoplopoma fimbria","Sablefish","Tripp-Valdez et. al 2012 Journal of Applied Ichthyology 28:516-523","USA","BS",56.0846111111111,-173.034758333333,"SABLEFEBSAIGA","","cytochrome c oxidase subunit I",15,"353",0.467,0.038213436,0.00146,0.000136845,"mtdna101",120
"105","Anoplopoma fimbria","Sablefish","Tripp-Valdez et. al 2012 Journal of Applied Ichthyology 28:516-523","USA","GA",54.0359444444444,-134.000183333333,"SABLEFEBSAIGA","","cytochrome c oxidase subunit I",14,"353",0.758,0.031002304,0.0027,0.000160357,"mtdna101",120
"106","Anoplopoma fimbria","Sablefish","Tripp-Valdez et. al 2012 Journal of Applied Ichthyology 28:516-523","USA","OR",45.8355555555556,-124.801666666667,"SABLEFPCOAST","","cytochrome c oxidase subunit I",13,"353",0.5,0.037719613,0.0015,0.00011094,"mtdna101",120
"107","Archosargus probatocephalus","Sheepshead","Seyoum et al. 2017 Bull. Mar. Sci. 93:691-713","USA","Apalachicola",29.718192,-84.9814,NA,"1999","control region",60,"470",NA,NA,0.04,NA,"mtdna102",91
"108","Archosargus probatocephalus","Sheepshead","Seyoum et al. 2017 Bull. Mar. Sci. 93:691-713","USA","Cedar Keys",29.135342,-83.042618,NA,"1998","control region",33,"470",NA,NA,0.039,NA,"mtdna102",91
"109","Archosargus probatocephalus","Sheepshead","Seyoum et al. 2017 Bull. Mar. Sci. 93:691-713","USA","Charleston",32.76209,-79.886029,NA,"2001","control region",23,"470",NA,NA,0.032,NA,"mtdna102",91
"110","Archosargus probatocephalus","Sheepshead","Seyoum et al. 2017 Bull. Mar. Sci. 93:691-713","USA","Corpus Christi",27.799609,-97.330457,NA,"1999","control region",31,"470",NA,NA,0.04,NA,"mtdna102",91
"111","Archosargus probatocephalus","Sheepshead","Seyoum et al. 2017 Bull. Mar. Sci. 93:691-713","USA","Florida Bay",25.037202,-80.725444,NA,"1996","control region",30,"470",NA,NA,0.043,NA,"mtdna102",91
"112","Archosargus probatocephalus","Sheepshead","Seyoum et al. 2017 Bull. Mar. Sci. 93:691-713","USA","Fort Walton",30.426693,-86.583054,NA,"1997","control region",25,"470",NA,NA,0.034,NA,"mtdna102",91
"113","Archosargus probatocephalus","Sheepshead","Seyoum et al. 2017 Bull. Mar. Sci. 93:691-713","USA","Indian River",27.691957,-80.351466,NA,"1999","control region",36,"470",NA,NA,0.034,NA,"mtdna102",91
"114","Archosargus probatocephalus","Sheepshead","Seyoum et al. 2017 Bull. Mar. Sci. 93:691-713","USA","Morehead City",34.715791,-76.72042,NA,"1999","control region",36,"470",NA,NA,0.033,NA,"mtdna102",91
"115","Archosargus probatocephalus","Sheepshead","Seyoum et al. 2017 Bull. Mar. Sci. 93:691-713","USA","St. Johns River",30.40297,-81.395411,NA,"2001","control region",29,"470",NA,NA,0.031,NA,"mtdna102",91
"116","Archosargus probatocephalus","Sheepshead","Seyoum et al. 2017 Bull. Mar. Sci. 93:691-713","USA","St. Simmons & Cumberland Islands",31.001457,-81.3979225,NA,"1998","control region",31,"470",NA,NA,0.031,NA,"mtdna102",91
"117","Archosargus probatocephalus","Sheepshead","Seyoum et al. 2017 Bull. Mar. Sci. 93:691-713","USA","Steinhatchee",29.67132,-83.392316,NA,"1999","control region",28,"470",NA,NA,0.042,NA,"mtdna102",91
"118","Archosargus probatocephalus","Sheepshead","Seyoum et al. 2017 Bull. Mar. Sci. 93:691-713","USA","Tampa Bay",27.739577,-82.59122,NA,"1999","control region",38,"470",NA,NA,0.039,NA,"mtdna102",91
"119","Atherinella brasiliensis","Brazilian silverside","Cortinhas et al. 2016 Estuarine, Coastal and Shelf Science 178:148-157","Brazil","Camacho",-28.611534,-48.871218,NA,"","D-loop",20,"933",0.86,NA,0.002,NA,"mtdna102",17.7
"120","Atherinella brasiliensis","Brazilian silverside","Cortinhas et al. 2016 Estuarine, Coastal and Shelf Science 178:148-157","Brazil","Carapebus",-22.265685,-41.608415,NA,"","D-loop",20,"933",0.54,NA,0.001,NA,"mtdna102",17.7
"121","Atherinella brasiliensis","Brazilian silverside","Cortinhas et al. 2016 Estuarine, Coastal and Shelf Science 178:148-157","Brazil","Conceição",-27.201605,-48.491153,NA,"","D-loop",20,"933",0.99,NA,0.003,NA,"mtdna102",17.7
"122","Atherinella brasiliensis","Brazilian silverside","Cortinhas et al. 2016 Estuarine, Coastal and Shelf Science 178:148-157","Brazil","Itaparica",-12.978106,-38.595195,NA,"","D-loop",19,"933",0.98,NA,0.004,NA,"mtdna102",17.7
"123","Atherinella brasiliensis","Brazilian silverside","Cortinhas et al. 2016 Estuarine, Coastal and Shelf Science 178:148-157","Brazil","Paranaguá",-25.592483,-48.347013,NA,"","D-loop",20,"933",0.94,NA,0.002,NA,"mtdna102",17.7
"124","Atherinella brasiliensis","Brazilian silverside","Cortinhas et al. 2016 Estuarine, Coastal and Shelf Science 178:148-157","Brazil","Patos",-33.377528,-52.943417,NA,"","D-loop",20,"933",0.75,NA,0.001,NA,"mtdna102",17.7
"125","Auxis rochei","Bullet tuna","Habib & Sulaiman 2016 Acta Oceanol. Sin. 35:76-82","Brunei","Brunei Darussalam",5.580067,113.986838,NA,"2013","D-loop",10,"426",1,NA,0.039,NA,"mtdna102",50
"126","Auxis thazard","Frigate tuna","Habib & Sulaiman 2016 Acta Oceanol. Sin. 35:76-82","Indonesia","Java Sea",-4.05,114.666666666667,NA,"2013","D-loop",30,"426",1,NA,0.119,NA,"mtdna102",65
"127","Auxis thazard","Frigate tuna","Kumar et al. 2012 Marine Biology Research 8:992-1002","India ","Kavaratti",11.927044,79.853967,NA,"2008","D-loop",50,"500",1,NA,0.026,NA,"mtdna101",65
"128","Auxis thazard","Frigate tuna","Kumar et al. 2012 Marine Biology Research 8:992-1002","India ","Kochi",11.927044,79.853967,NA,"2008","D-loop",50,"500",1,NA,0.056,NA,"mtdna101",65
"129","Auxis thazard","Frigate tuna","Kumar et al. 2012 Marine Biology Research 8:992-1002","India ","Pondicherry",11.927044,79.853967,NA,"2008","D-loop",50,"500",1,NA,0.04,NA,"mtdna101",65
"130","Auxis thazard","Frigate tuna","Kumar et al. 2012 Marine Biology Research 8:992-1002","India ","Port-Blair",11.927044,79.853967,NA,"2009","D-loop",14,"500",0.989,NA,0.091,NA,"mtdna101",65
"131","Auxis thazard","Frigate tuna","Kumar et al. 2012 Marine Biology Research 8:992-1002","India ","Ratnagiri",11.927044,79.853967,NA,"2008","D-loop",50,"500",0.9992,NA,0.043,NA,"mtdna101",65
"132","Auxis thazard","Frigate tuna","Kumar et al. 2012 Marine Biology Research 8:992-1002","India ","Tuticorin",11.927044,79.853967,NA,"2009","D-loop",50,"500",1,NA,0.027,NA,"mtdna101",65
"133","Auxis thazard","Frigate tuna","Kumar et al. 2012 Marine Biology Research 8:992-1002","India ","Veravel",11.927044,79.853967,NA,"2007","D-loop",50,"500",0.9992,NA,0.031,NA,"mtdna101",65
"134","Auxis thazard","Frigate tuna","Kumar et al. 2012 Marine Biology Research 8:992-1002","India ","Vizag",11.927044,79.853967,NA,"2009","D-loop",50,"500",0.9984,NA,0.034,NA,"mtdna101",65
"135","Auxis thazard","Frigate tuna","Pedrosa-Gerasmio, Agmata & Santos 2015 Fisheries Research 162:64-74","Indonesia","Indonesia",1.477665,124.8171,NA,"","D-loop",22,"309",0.9952,0.0035,0.035913,0.004,"mtdna102",65
"136","Auxis thazard","Frigate tuna","Pedrosa-Gerasmio, Agmata & Santos 2015 Fisheries Research 162:64-74","Malaysia","Malaysia",6.878104,116.836371,NA,"","D-loop",40,"309",0.9987,0.001,0.032696,0.0027,"mtdna102",65
"137","Auxis thazard","Frigate tuna","Pedrosa-Gerasmio, Agmata & Santos 2015 Fisheries Research 162:64-74","Philippines","Palawan",9.59959,118.344876,NA,"","D-loop",49,"309",1,6e-04,0.034123,0.0025,"mtdna102",65
"138","Auxis thazard","Frigate tuna","Pedrosa-Gerasmio, Agmata & Santos 2015 Fisheries Research 162:64-74","Philippines","Zamboanga",6.925259,122.047269,NA,"","D-loop",39,"309",0.972,0.0011,0.030625,0.0026,"mtdna102",65
"139","Balistes capriscus","Grey triggerfish","Antoni et al. 2011 North American Journal of Fisheries 31:714-721","USA","Louisiana",27,-91,"GTRIGGM","2008.5","ND4",29,"617",0.81505,NA,0.00345,NA,"mtdna101",60
"140","Balistes capriscus","Grey triggerfish","Antoni et al. 2011 North American Journal of Fisheries 31:714-721","USA","South-eastern Florida",26.0833333333333,-80,NA,"2008.5","ND4",29,"617",0.90726,NA,0.00403,NA,"mtdna101",60
"141","Balistes capriscus","Grey triggerfish","Antoni et al. 2011 North American Journal of Fisheries 31:714-721","USA","South Carolina",33.0833333333333,-79,NA,"2008.5","ND4",29,"617",0.88736,NA,0.00393,NA,"mtdna101",60
"142","Balistes capriscus","Grey triggerfish","Antoni et al. 2011 North American Journal of Fisheries 31:714-721","USA","South Texas",26.0188888888889,-97.0011111111111,"GTRIGGM","2008.5","ND4",29,"617",0.89195,NA,0.00451,NA,"mtdna101",60
"143","Balistes capriscus","Grey triggerfish","Antoni et al. 2011 North American Journal of Fisheries 31:714-721","USA","West Florida",30.150349,-86.485161,"GTRIGGM","2008.5","ND4",29,"617",0.87957,NA,0.003386,NA,"mtdna101",60
"144","Bathygobius cocosensis","Cocos frill-goby","Muki et al. 2009 Ichythology Res 56:380-387","Northwestern Pacific Ocean ","Bonin Islands ",25,145,NA,"","ND5",22,"945",0.636,NA,0.001,NA,"mtdna101",12
"145","Bathygobius cocosensis","Cocos frill-goby","Muki et al. 2009 Ichythology Res 56:380-387","Northwestern Pacific Ocean ","Iriomote-jima",24.348439,123.652159,NA,"","ND5",12,"945",0.955,NA,0.003,NA,"mtdna101",12
"146","Bathygobius cocosensis","Cocos frill-goby","Muki et al. 2009 Ichythology Res 56:380-387","Northwestern Pacific Ocean ","Okinawa-jima",26.902202,128.033732,NA,"","ND5",10,"945",0.644,NA,0.001,NA,"mtdna101",12
"147","Bathygobius cocosensis","Cocos frill-goby","Muki et al. 2009 Ichythology Res 56:380-387","Northwestern Pacific Ocean ","Wakayama",34.045771,134.984552,NA,"","ND5",16,"945",0.908,NA,0.002,NA,"mtdna101",12
"148","Bathytoshia centroura","Roughtail stingray","Vella, Vella & Schembri (2017) Marine Genomics 36:17-23","","Malta",35.951019,14.361835,NA,"2003-2017","ND2",6,"990",0.6,0.215,7e-04,7e-04,"mtdna103",300
"149","Bathytoshia centroura","Roughtail stingray","Vella, Vella & Schembri (2017) Marine Genomics 36:17-23","","Malta",35.951019,14.361835,NA,"2003-2017","cytochrome c oxidase subunit I",6,"610",0.6,0.215,0.0014,0.0013,"mtdna103",300
"150","Bellapiscis lesleyae","Mottled twister","Hickey et. al 2009 Molecular Ecology 18:680-697","New Zealand","Bluff",-46.5833333333333,168.333333333333,NA,"","control region",12,"400",0.591,0.108,0.003,0.002,"mtdna101",6.03
"151","Bellapiscis lesleyae","Mottled twister","Hickey et. al 2009 Molecular Ecology 18:680-697","New Zealand","Hauraki Gulf",-35.9,175.083333333333,NA,"","control region",4,"400",1,0.177,0.013,0.009,"mtdna101",6.03
"152","Bellapiscis lesleyae","Mottled twister","Hickey et. al 2009 Molecular Ecology 18:680-697","New Zealand","Kaikoura",-42.4,173.7,NA,"","control region",14,"400",1,0.034,0.013,0.008,"mtdna101",6.03
"153","Bellapiscis lesleyae","Mottled twister","Hickey et. al 2009 Molecular Ecology 18:680-697","New Zealand","Three Kings",-34.1333333333333,172.133333333333,NA,"","control region",12,"400",0.758,0.093,0.005,0.003,"mtdna101",6.03
"154","Bellapiscis medius","Twister","Hickey et. al 2009 Molecular Ecology 18:680-697","New Zealand","Bluff",-46.5833333333333,168.333333333333,NA,"","control region",24,"400",0.486,0.113,0.002,0.002,"mtdna101",7.5
"155","Bellapiscis medius","Twister","Hickey et. al 2009 Molecular Ecology 18:680-697","New Zealand","Catlins",-46.3666666666667,169.783333333333,NA,"","control region",21,"400",0.095,0.084,3e-04,0.001,"mtdna101",7.5
"156","Bellapiscis medius","Twister","Hickey et. al 2009 Molecular Ecology 18:680-697","New Zealand","Hauraki Gulf",-35.9,175.083333333333,NA,"","control region",14,"400",0.901,0.058,0.006,0.004,"mtdna101",7.5
"157","Bellapiscis medius","Twister","Hickey et. al 2009 Molecular Ecology 18:680-697","New Zealand","Kaikoura",-42.4,173.7,NA,"","control region",8,"400",0.649,0.184,0.004,0.003,"mtdna101",7.5
"158","Bellapiscis medius","Twister","Hickey et. al 2009 Molecular Ecology 18:680-697","New Zealand","Kaipara",-36.25,174.233333333333,NA,"","control region",14,"400",0.818,0.084,0.005,0.003,"mtdna101",7.5
"159","Bellapiscis medius","Twister","Hickey et. al 2009 Molecular Ecology 18:680-697","New Zealand","Otago",-45.8166666666667,170.65,NA,"","control region",16,"400",0.264,0.136,0.001,0.001,"mtdna101",7.5
"160","Bellapiscis medius","Twister","Hickey et. al 2009 Molecular Ecology 18:680-697","New Zealand","Wellington",-41.0833333333333,174.85,NA,"","control region",19,"400",0.836,0.139,0.003,0.002,"mtdna101",7.5
"161","Beringraja pulchra","Mottled skate","Im et al. 2017 J. Appl. Ichthyol. 23:950-956","South Korea","Daechungdo",37.7,124.8,NA,"2011","cytochrome c oxidase subunit I",30,"471",0.536,NA,0.0018,NA,"mtdna102",115
"162","Beringraja pulchra","Mottled skate","Im et al. 2017 J. Appl. Ichthyol. 23:950-956","South Korea","Heuksando",34.671828,125.419423,NA,"2011","cytochrome c oxidase subunit I",27,"471",0.581,NA,0.0019,NA,"mtdna102",115
"163","Beryx decadactylus","Alfonsino","Friess & Sedberry 2011 Journal of Fish Biology 78:466-478","United States","Charleston Bump ",32.0936,-75.9942,NA,"2005","control region",141,"403",0.799,NA,0.0041,NA,"mtdna101",100
"164","Beryx splendens","Splendid alfonsino","Levy-Hartmann et al. 2011 Genetica 139: 1349-1365","New Caledonia","Astrolabe Reef,  North Loyality ridge",-20,165.3,NA,"","cytb",12,"815",0.8485,NA,0.003458,NA,"mtdna101",70
"165","Beryx splendens","Splendid alfonsino","Levy-Hartmann et al. 2011 Genetica 139: 1349-1365","New Caledonia","Atlantic Ocean",58.539595,-19.541019,NA,"","cytb",25,"815",0.9833,NA,0.009669,NA,"mtdna101",70
"166","Beryx splendens","Splendid alfonsino","Levy-Hartmann et al. 2011 Genetica 139: 1349-1365","New Caledonia","Chatham Rise",-46.316584,178.886712,NA,"","cytb",13,"815",0.9744,NA,0.003492,NA,"mtdna101",70
"167","Beryx splendens","Splendid alfonsino","Levy-Hartmann et al. 2011 Genetica 139: 1349-1365","New Caledonia","East Coast",-40.044438,-179.150394,NA,"","cytb",25,"815",0.88,NA,0.004266,NA,"mtdna101",70
"168","Beryx splendens","Splendid alfonsino","Levy-Hartmann et al. 2011 Genetica 139: 1349-1365","New Caledonia","Indian Ocean (east)",-20.468189,111.943356,NA,"","cytb",10,"815",0.9778,NA,0.005235,NA,"mtdna101",70
"169","Beryx splendens","Splendid alfonsino","Levy-Hartmann et al. 2011 Genetica 139: 1349-1365","New Caledonia","Indian Ocean (west)",-27.839076,49.892575,NA,"","cytb",9,"815",0.9167,NA,0.00259,NA,"mtdna101",70
"170","Beryx splendens","Splendid alfonsino","Levy-Hartmann et al. 2011 Genetica 139: 1349-1365","New Caledonia","Lifou Island, North Loyality ridge",-21,167,NA,"","cytb",10,"815",0.9333,NA,0.004908,NA,"mtdna101",70
"171","Beryx splendens","Splendid alfonsino","Levy-Hartmann et al. 2011 Genetica 139: 1349-1365","New Caledonia","Off Japanese Coast",45.828799,146.894524,NA,"","cytb",27,"815",0.886,NA,0.003489,NA,"mtdna101",70
"172","Beryx splendens","Splendid alfonsino","Levy-Hartmann et al. 2011 Genetica 139: 1349-1365","New Caledonia","Off Tasmania, South Australia",-45.336702,144.462887,NA,"","cytb",5,"815",1,NA,0.007853,NA,"mtdna101",70
"173","Beryx splendens","Splendid alfonsino","Levy-Hartmann et al. 2011 Genetica 139: 1349-1365","New Caledonia","Seamount J, South Loyality ridge",-24.1,170,NA,"","cytb",21,"815",0.9524,NA,0.003728,NA,"mtdna101",70
"174","Beryx splendens","Splendid alfonsino","Levy-Hartmann et al. 2011 Genetica 139: 1349-1365","New Caledonia","Seamount Jumeau Est, Norfolk ridge",-23.6,168.5,NA,"","cytb",14,"815",0.8901,NA,0.003182,NA,"mtdna101",70
"175","Beryx splendens","Splendid alfonsino","Levy-Hartmann et al. 2011 Genetica 139: 1349-1365","New Caledonia","Seamount Jumeau Ouest, Norfolk ridge",-23.9,167.5,NA,"","cytb",10,"815",0.7778,NA,0.001963,NA,"mtdna101",70
"176","Beryx splendens","Splendid alfonsino","Levy-Hartmann et al. 2011 Genetica 139: 1349-1365","New Caledonia","Seamount K, South Loyality ridge",-24.5,170.1,NA,"","cytb",13,"815",0.8718,NA,0.003146,NA,"mtdna101",70
"177","Beryx splendens","Splendid alfonsino","Levy-Hartmann et al. 2011 Genetica 139: 1349-1365","New Caledonia","Seamount Stylaster, Norfolk ridge",-23.5,168,NA,"","cytb",10,"815",0.9333,NA,0.002372,NA,"mtdna101",70
"178","Boreogadus saida","Polar cod","Palsson et. al 2009 Polar Biology 32:471-479","Bering strait","19",70,-175,NA,"2002","cytb",5,"260",0.7,0.22,0.0031,0.0031,"mtdna101",40
"179","Boreogadus saida","Polar cod","Palsson et. al 2009 Polar Biology 32:471-479","Greenland","1",71.48,-56.58,NA,"2004","cytb",32,"260",0.44,0.11,0.0031,0.0026,"mtdna101",40
"180","Boreogadus saida","Polar cod","Palsson et. al 2009 Polar Biology 32:471-479","Greenland","10",74.9,-21.01,NA,"2003","cytb",17,"260",0.32,0.14,0.0013,0.0015,"mtdna101",40
"181","Boreogadus saida","Polar cod","Palsson et. al 2009 Polar Biology 32:471-479","Greenland","11",75.58,-21.44,NA,"2003","cytb",20,"260",0.45,0.14,0.0027,0.0023,"mtdna101",40
"182","Boreogadus saida","Polar cod","Palsson et. al 2009 Polar Biology 32:471-479","Greenland","12",76.43,-19.19,NA,"2003","cytb",17,"260",0.67,0.09,0.0054,0.0039,"mtdna101",40
"183","Boreogadus saida","Polar cod","Palsson et. al 2009 Polar Biology 32:471-479","Greenland","14",73.04,-16.31,NA,"2003","cytb",19,"260",0.45,0.13,0.0041,0.0032,"mtdna101",40
"184","Boreogadus saida","Polar cod","Palsson et. al 2009 Polar Biology 32:471-479","Greenland","15",75.24,-11.45,NA,"2003","cytb",17,"260",0.23,0.13,0.0018,0.0018,"mtdna101",40
"185","Boreogadus saida","Polar cod","Palsson et. al 2009 Polar Biology 32:471-479","Greenland","16",76.59,-6.25,NA,"2002","cytb",39,"260",0.39,0.09,0.0041,0.0031,"mtdna101",40
"186","Boreogadus saida","Polar cod","Palsson et. al 2009 Polar Biology 32:471-479","Greenland","17",79.01,10.43,NA,"2002","cytb",41,"260",0.23,0.08,0.002,0.0019,"mtdna101",40
"187","Boreogadus saida","Polar cod","Palsson et. al 2009 Polar Biology 32:471-479","Greenland","2",67.22,-57.07,NA,"2004","cytb",41,"260",0.34,0.09,0.0023,0.0026,"mtdna101",40
"188","Boreogadus saida","Polar cod","Palsson et. al 2009 Polar Biology 32:471-479","Greenland","3",65.04,-34.31,NA,"2005","cytb",22,"260",0.4,0.12,0.0037,0.0029,"mtdna101",40
"189","Boreogadus saida","Polar cod","Palsson et. al 2009 Polar Biology 32:471-479","Greenland","8",74.04,-22,NA,"2003","cytb",16,"260",0.69,0.12,0.0041,0.0032,"mtdna101",40
"190","Boreogadus saida","Polar cod","Palsson et. al 2009 Polar Biology 32:471-479","Greenland","9",74.27,-21.11,NA,"2003","cytb",15,"260",0.36,0.14,0.0032,0.0027,"mtdna101",40
"191","Boreogadus saida","Polar cod","Palsson et. al 2009 Polar Biology 32:471-479","Iceland","4",66.75,-24.5,NA,"2002","cytb",20,"260",0.57,0.12,0.0051,0.0037,"mtdna101",40
"192","Boreogadus saida","Polar cod","Palsson et. al 2009 Polar Biology 32:471-479","Iceland","5",67.25,-19.5,NA,"2002","cytb",20,"260",0.35,0.12,0.0034,0.0027,"mtdna101",40
"193","Boreogadus saida","Polar cod","Palsson et. al 2009 Polar Biology 32:471-479","Iceland","6",66,-12,NA,"2002","cytb",17,"260",0.41,0.14,0.0032,0.0027,"mtdna101",40
"194","Boreogadus saida","Polar cod","Palsson et. al 2009 Polar Biology 32:471-479","Iceland","7",64.5,-12,NA,"2002","cytb",40,"260",0.54,0.08,0.0047,0.0034,"mtdna101",40
"195","Boreogadus saida","Polar cod","Palsson et. al 2009 Polar Biology 32:471-479","Spitsbergen","18",60,-175,NA,"2002","cytb",19,"260",0.3,0.13,0.0023,0.0022,"mtdna101",40
"196","Boreogadus saida","Polar cod","Wilson et al. 2019 ICES Journal of Marine Science 76:1713-1721","Canada","St. Lawrence",50.455494,-58.266836,NA,"2010","cytb",30,"818-1266",0.85,NA,0.0045,NA,"mtdna102",40
"197","Boreogadus saida","Polar cod","Wilson et al. 2019 ICES Journal of Marine Science 76:1713-1721","USA","Camden Bay",70.02383,-144.737828,NA,"2008-2014","cytb",117,"818-1266",0.88,NA,0.0046,NA,"mtdna102",40
"198","Boreogadus saida","Polar cod","Wilson et al. 2019 ICES Journal of Marine Science 76:1713-1721","USA","Central Beaufort",70.832914,-149.52512,NA,"2008-2014","cytb",55,"818-1266",0.86,NA,0.0038,NA,"mtdna102",40
"199","Boreogadus saida","Polar cod","Wilson et al. 2019 ICES Journal of Marine Science 76:1713-1721","USA","Southern Shelf",70.038369,-140.648168,NA,"2008-2014","cytb",71,"818-1266",0.86,NA,0.0052,NA,"mtdna102",40
"200","Boreogadus saida","Polar cod","Wilson et al. 2019 ICES Journal of Marine Science 76:1713-1721","USA","Western Beaufort",71.485664,-154.710667,NA,"2008-2014","cytb",62,"818-1266",0.92,NA,0.005,NA,"mtdna102",40
"201","Branchiostegus japonicus","Horsehead tilefish","Nohara et. al 2010 Fish Science 76:75-81","East China Sea","EC",28.69,124.5,NA,"2003","control region",35,"388",0.928,0.005747049,0.08,0.000845154,"mtdna101",46
"202","Branchiostegus japonicus","Horsehead tilefish","Nohara et. al 2010 Fish Science 76:75-81","Japan","KC",33.1,134.2,NA,"2003","control region",35,"388",0.966,0.003380617,0.01,0.000845154,"mtdna101",46
"203","Branchiostegus japonicus","Horsehead tilefish","Nohara et. al 2010 Fish Science 76:75-81","Japan","KT",35.97,135.12,NA,"2003","control region",35,"388",0.916,0.005747049,0.01,0.001014185,"mtdna101",46
"204","Branchiostegus japonicus","Horsehead tilefish","Nohara et. al 2010 Fish Science 76:75-81","Japan","NG",37.6,138.5,NA,"2003","control region",35,"388",0.832,0.010141851,0.006,0.000507093,"mtdna101",46
"205","Branchiostegus japonicus","Horsehead tilefish","Nohara et. al 2010 Fish Science 76:75-81","Japan","SN",36.11,132.7,NA,"2003","control region",35,"388",0.961,0.003549648,0.01,0.001014185,"mtdna101",46
"206","Branchiostegus japonicus","Horsehead tilefish","Nohara et. al 2010 Fish Science 76:75-81","Japan","SO",34.5,138.8,NA,"2003","control region",35,"388",0.983,0.001859339,0.01,0.001014185,"mtdna101",46
"207","Branchiostegus japonicus","Horsehead tilefish","Nohara et. al 2010 Fish Science 76:75-81","Japan","TS",34.4,129.6,NA,"2003","control region",35,"388",0.879,0.008451543,0.006,0.000676123,"mtdna101",46
"208","Branchiostegus japonicus","Horsehead tilefish","Nohara et. al 2010 Fish Science 76:75-81","Japan","YG",34.8,131.2,NA,"2003","control region",35,"388",0.923,0.005239956,0.007,0.000676123,"mtdna101",46
"209","Branchiostoma belcheri","","Li, Zhong & Wang 2013 Zoological Science 30:83-91","China","Beihai",21.425024,109.082557,NA,"2008","major non-coding region, tRNAG, ND6 (partial)",10,"541",1,NA,0.0123,NA,"mtdna102",NA
"210","Branchiostoma belcheri","","Li, Zhong & Wang 2013 Zoological Science 30:83-91","China","Maoming",21.513626,111.042936,NA,"2005","major non-coding region, tRNAG, ND6 (partial)",15,"541",1,NA,0.0156,NA,"mtdna102",NA
"211","Branchiostoma belcheri","","Li, Zhong & Wang 2013 Zoological Science 30:83-91","China","Xiamen",24.479806,118.066633,NA,"2005","major non-coding region, tRNAG, ND6 (partial)",15,"541",0.9917,NA,0.0102,NA,"mtdna102",NA
"212","Branchiostoma japonicum","","Li, Zhong & Wang 2013 Zoological Science 30:83-91","China","Quingdao",36.051652,12.393669,NA,"2006","major non-coding region, tRNAG, ND6 (partial)",15,"467",1,NA,0.0166,NA,"mtdna102",NA
"213","Branchiostoma japonicum","","Li, Zhong & Wang 2013 Zoological Science 30:83-91","China","Xiamen",24.479806,118.066633,NA,"2005","major non-coding region, tRNAG, ND6 (partial)",15,"467",1,NA,0.0128,NA,"mtdna102",NA
"214","Caffrogobius caffer","Banded goby","Neethling et. al 2008 BMC Evolutionary Biology 8:325","South Africa","Cape Agulhas",-34.8,19.9,NA,"","control region",26,"390",0.963,NA,0.01,NA,"mtdna101",18
"215","Caffrogobius caffer","Banded goby","Neethling et. al 2008 BMC Evolutionary Biology 8:325","South Africa","Cape Infanta",-34.6,20.3,NA,"","control region",26,"390",0.969,NA,0.01,NA,"mtdna101",18
"216","Caffrogobius caffer","Banded goby","Neethling et. al 2008 BMC Evolutionary Biology 8:325","South Africa","Gansbaai",-34.5,19.3,NA,"","control region",25,"390",0.967,NA,0.01,NA,"mtdna101",18
"217","Caffrogobius caffer","Banded goby","Neethling et. al 2008 BMC Evolutionary Biology 8:325","South Africa","Haga Haga",-33.3,27.4,NA,"","control region",21,"390",0.971,NA,0.01,NA,"mtdna101",18
"218","Caffrogobius caffer","Banded goby","Neethling et. al 2008 BMC Evolutionary Biology 8:325","South Africa","Herold's Bay",-34.4,21.8,NA,"","control region",26,"390",0.951,NA,0.009,NA,"mtdna101",18
"219","Caffrogobius caffer","Banded goby","Neethling et. al 2008 BMC Evolutionary Biology 8:325","South Africa","Jongensfontein",-34.4,20.8,NA,"","control region",26,"390",0.96,NA,0.009,NA,"mtdna101",18
"220","Caffrogobius caffer","Banded goby","Neethling et. al 2008 BMC Evolutionary Biology 8:325","South Africa","Knysna Heads",-34.07,22.5,NA,"","control region",24,"390",0.982,NA,0.011,NA,"mtdna101",18
"221","Caffrogobius caffer","Banded goby","Neethling et. al 2008 BMC Evolutionary Biology 8:325","South Africa","Port Alfred",-33.7,26.5,NA,"","control region",24,"390",0.935,NA,0.009,NA,"mtdna101",18
"222","Caffrogobius caffer","Banded goby","Neethling et. al 2008 BMC Evolutionary Biology 8:325","South Africa","Rooiels",-34.4,18.8,NA,"","control region",22,"390",0.965,NA,0.011,NA,"mtdna101",18
"223","Caffrogobius caffer","Banded goby","Neethling et. al 2008 BMC Evolutionary Biology 8:325","South Africa","Wooley's Pool",-34.1,18.6,NA,"","control region",22,"390",0.948,NA,0.008,NA,"mtdna101",18
"224","Carcharhinus galapagensis","Galapagos shark","Pazmiño et al. 2017 Conserv. Genet. 18:1151-1163","Ecuador","Isabela",0.833333333333333,-90.8166666666667,NA,"","control region",8,"997",0.585,0.0247,0.018,0.0035,"mtdna102",370
"225","Carcharhinus galapagensis","Galapagos shark","Pazmiño et al. 2017 Conserv. Genet. 18:1151-1163","Ecuador","Northern Islands",-1.65,-91.9833333333333,NA,"","control region",4,"997",1,0.135,0.053,0.02,"mtdna102",370
"226","Carcharhinus galapagensis","Galapagos shark","Pazmiño et al. 2017 Conserv. Genet. 18:1151-1163","Ecuador","San Cristobal",-0.525015,-89.9,NA,"","control region",27,"997",0.361,0.0269,0.007,0,"mtdna102",370
"227","Carcharhinus galapagensis","Galapagos shark","Pazmiño et al. 2017 Conserv. Genet. 18:1151-1163","Ecuador","Santa Cruz",-0.700011,-90.65554333,NA,"","control region",46,"997",0.555,0.0133,0.074,0.0059,"mtdna102",370
"228","Carcharodon carcharias","Great white shark","Blower et al. 2012 Marine Ecology Progress Series 455: 229-244","Australia","New South Wales",32.0183333333333,147.000555555556,NA,"1997","control region",38,"842",0.838,0.025,0.00289,0.00178,"mtdna101",640
"229","Carcharodon carcharias","Great white shark","Blower et al. 2012 Marine Ecology Progress Series 455: 229-244","Australia","Queensland",23,143,NA,"1997","control region",13,"842",0.885,0.058,0.0029,0.00189,"mtdna101",640
"230","Carcharodon carcharias","Great white shark","Blower et al. 2012 Marine Ecology Progress Series 455: 229-244","Australia","South Australia",30,135,NA,"1997","control region",28,"842",0.833,0.051,0.00285,0.00178,"mtdna101",640
"231","Centrophorus harrissoni","Dumb gulper shark","Daley et al. 2012 Marine and Freshwater Research 63:708-714","Australia","North-eastern Tasmania",-40,149,NA,"2007","16S",23,"486",NA,NA,0.071,0.00834,"mtdna101",111.4
"232","Centrophorus moluccensis","Smallfin gulper shark","Daley et al. 2012 Marine and Freshwater Research 63:708-714","Australia","Western Australia",-32,115,NA,"2007","16S",5,"503",NA,NA,0.001,0.000447,"mtdna101",100
"233","Centrophorus uyato","Little gulper shark","Vella, Vella & Schembri (2017) Marine Genomics 36:17-23","","Malta",35.951019,14.361835,NA,"2003-2017","ND2",14,"990",0.6,0.064,0.0021,0.0013,"mtdna103",110
"234","Centrophorus zeehaani","Southern dogfish","Daley et al. 2012 Marine and Freshwater Research 63:708-714","Australia","Victoria",-40.0833333333333,148.118055555556,NA,"2007","16S",18,"505",NA,NA,0.004,0.000471,"mtdna101",91
"235","Centropristis striata","Black seabass","Roy et. al 2012 Marine and Coastal Fisheries: Dynamics, Management, and Ecosystem Service 4:391-402","USA","CT",41.1,-72.8,"BSBASSMATLC","","control region",13,"342",0.641,0.041602515,0.002,0.0005547,"mtdna101",66
"236","Centropristis striata","Black seabass","Roy et. al 2012 Marine and Coastal Fisheries: Dynamics, Management, and Ecosystem Service 4:391-402","USA","FL",27.7,-80.4,NA,"","control region",53,"342",0.861,0.005494423,0.007,0.000686803,"mtdna101",66
"237","Centropristis striata","Black seabass","Roy et. al 2012 Marine and Coastal Fisheries: Dynamics, Management, and Ecosystem Service 4:391-402","USA","GA",31.6,-80.7,NA,"","control region",40,"342",0.887,0.006798897,0.008,0.000790569,"mtdna101",66
"238","Centropristis striata","Black seabass","Roy et. al 2012 Marine and Coastal Fisheries: Dynamics, Management, and Ecosystem Service 4:391-402","USA","GoM",29.5,-84.7,NA,"","control region",57,"342",0.999,0.000529813,0.015,0.001059626,"mtdna101",66
"239","Centropristis striata","Black seabass","Roy et. al 2012 Marine and Coastal Fisheries: Dynamics, Management, and Ecosystem Service 4:391-402","USA","NC",34.3,-77.4,NA,"","control region",56,"342",0.87,0.005077964,0.006,0.000534522,"mtdna101",66
"240","Centropristis striata","Black seabass","Roy et. al 2012 Marine and Coastal Fisheries: Dynamics, Management, and Ecosystem Service 4:391-402","USA","NJ",39.5,-73.8,"BSBASSMATLC","","control region",28,"342",0.442,0.021921939,0.003,0.000377964,"mtdna101",66
"241","Centropristis striata","Black seabass","Roy et. al 2012 Marine and Coastal Fisheries: Dynamics, Management, and Ecosystem Service 4:391-402","USA","OI",35.8,-75.4,"BSBASSMATLC","","control region",8,"342",0.25,0.06363961,0.001,0.000353553,"mtdna101",66
"242","Centropristis striata","Black seabass","Roy et. al 2012 Marine and Coastal Fisheries: Dynamics, Management, and Ecosystem Service 4:391-402","USA","SC32",32.3,-79.7,NA,"","control region",39,"342",0.815,0.009767817,0.006,0.000640513,"mtdna101",66
"243","Centropristis striata","Black seabass","Roy et. al 2012 Marine and Coastal Fisheries: Dynamics, Management, and Ecosystem Service 4:391-402","USA","SC33",33.3,-78.7,NA,"","control region",40,"342",0.846,0.008063808,0.005,0.000474342,"mtdna101",66
"244","Centropristis striata","Black seabass","Roy et. al 2012 Marine and Coastal Fisheries: Dynamics, Management, and Ecosystem Service 4:391-402","USA","VA",36.9,-75.5,"BSBASSMATLC","","control region",30,"342",0.361,0.019900586,0.002,0.000365148,"mtdna101",66
"245","Centroscymnus crepidater","Longnose velvet dogfish","Cunha et al. 2012 PLoS ONE 7:e49196","Atlantic Ocean","Mid-Atlantic Ridge",43,-27,NA,"","control region",20,NA,0.984,0.0047,0.013,0.00157,"mtdna101",130
"246","Centroscymnus crepidater","Longnose velvet dogfish","Cunha et al. 2012 PLoS ONE 7:e49196","New Zealand","Chatham Rise",-45,167,NA,"","control region",5,NA,0.9,0.072,0.014,0.0076,"mtdna101",130
"247","Centroscymnus crepidater","Longnose velvet dogfish","Cunha et al. 2012 PLoS ONE 7:e49196","Portugal","Azores",37.0833333333333,-29,NA,"","control region",23,NA,0.885,0.01,0.018,0.00188,"mtdna101",130
"248","Centroscymnus crepidater","Longnose velvet dogfish","Cunha et al. 2012 PLoS ONE 7:e49196","Portugal","Madeira",33,-18,NA,"","control region",5,NA,0.9,0.072,0.003,0.000894,"mtdna101",130
"249","Centroscymnus crepidater","Longnose velvet dogfish","Cunha et al. 2012 PLoS ONE 7:e49196","South Pacific Ocean","Tasman Sea",-44,150,NA,"","control region",21,NA,0.624,0.0264,0.002,0.000218,"mtdna101",130
"250","Centroscymnus crepidater","Longnose velvet dogfish","Cunha et al. 2012 PLoS ONE 7:e49196","United Kingdom","Rockall Trough",55.0833333333333,-16,NA,"","control region",15,NA,0.933,0.0116,0.009,0.00129,"mtdna101",130
"251","Cephalopholis argus","Peacock hind","Gaither et al. 2011 BMC Evolutionary Biology 11:1-16","Australia ","Christmas Island ",-10.4954,105.6947,NA,"","cytb",49,"729",0.83,NA,0.006,NA,"mtdna101",60
"252","Cephalopholis argus","Peacock hind","Gaither et al. 2011 BMC Evolutionary Biology 11:1-16","Australia ","Cocos/Keeling ",-12.1363,96.7984,NA,"","cytb",40,"729",0.87,NA,0.006,NA,"mtdna101",60
"253","Cephalopholis argus","Peacock hind","Gaither et al. 2011 BMC Evolutionary Biology 11:1-16","Australia ","Lizard Island ",-14.6643,145.4474,NA,"","cytb",12,"729",0.67,NA,0.001,NA,"mtdna101",60
"254","Cephalopholis argus","Peacock hind","Gaither et al. 2011 BMC Evolutionary Biology 11:1-16","Australia ","Rowley Shoals ",-17.3701,119.1637,NA,"","cytb",40,"729",0.81,NA,0.005,NA,"mtdna101",60
"255","Cephalopholis argus","Peacock hind","Gaither et al. 2011 BMC Evolutionary Biology 11:1-16","Australia ","Scott Reef ",-14.0268,121.9596,NA,"","cytb",42,"729",0.73,NA,0.004,NA,"mtdna101",60
"256","Cephalopholis argus","Peacock hind","Gaither et al. 2011 BMC Evolutionary Biology 11:1-16","Federated States of Micronesia ","Pohnpei ",6.9247,158.346,NA,"","cytb",15,"729",0.74,NA,0.004,NA,"mtdna101",60
"257","Cephalopholis argus","Peacock hind","Gaither et al. 2011 BMC Evolutionary Biology 11:1-16","French Polynesia ","Marquesas ",-9.7945,-138.7697,NA,"","cytb",50,"729",0.65,NA,0.002,NA,"mtdna101",60
"258","Cephalopholis argus","Peacock hind","Gaither et al. 2011 BMC Evolutionary Biology 11:1-16","French Polynesia ","Moorea ",-17.5197,-149.7481,NA,"","cytb",36,"729",0.38,NA,0.001,NA,"mtdna101",60
"259","Cephalopholis argus","Peacock hind","Gaither et al. 2011 BMC Evolutionary Biology 11:1-16","New Zealand ","Somoa/Tokelau ",-9.1568,-171.7664,NA,"","cytb",27,"729",0.64,NA,0.001,NA,"mtdna101",60
"260","Cephalopholis argus","Peacock hind","Gaither et al. 2011 BMC Evolutionary Biology 11:1-16","Oman ","Oman ",20.4765,59.4271,NA,"","cytb",9,"729",0.81,NA,0.006,NA,"mtdna101",60
"261","Cephalopholis argus","Peacock hind","Gaither et al. 2011 BMC Evolutionary Biology 11:1-16","Republic of Indonesia ","Bali ",-7.9813,115.3964,NA,"","cytb",23,"729",0.81,NA,0.005,NA,"mtdna101",60
"262","Cephalopholis argus","Peacock hind","Gaither et al. 2011 BMC Evolutionary Biology 11:1-16","Republic of Indonesia ","Sumatra",6.035,94.6193,NA,"","cytb",4,"729",0.83,NA,0.007,NA,"mtdna101",60
"263","Cephalopholis argus","Peacock hind","Gaither et al. 2011 BMC Evolutionary Biology 11:1-16","Republic of Kiribati ","Kiritimati ",1.8735,-157.2652,NA,"","cytb",32,"729",0.74,NA,0.003,NA,"mtdna101",60
"264","Cephalopholis argus","Peacock hind","Gaither et al. 2011 BMC Evolutionary Biology 11:1-16","Republic of Palau ","Palau ",7.4294,134.6824,NA,"","cytb",22,"729",0.77,NA,0.004,NA,"mtdna101",60
"265","Cephalopholis argus","Peacock hind","Gaither et al. 2011 BMC Evolutionary Biology 11:1-16","Republic of Seychelles ","Seychelles ",-4.5421,55.4296,NA,"","cytb",13,"729",0.96,NA,0.003,NA,"mtdna101",60
"266","Cephalopholis argus","Peacock hind","Gaither et al. 2011 BMC Evolutionary Biology 11:1-16","Republic of the Marshall Islands ","Kwajalein ",9.2597,167.6182,NA,"","cytb",22,"729",0.86,NA,0.005,NA,"mtdna101",60
"267","Cephalopholis argus","Peacock hind","Gaither et al. 2011 BMC Evolutionary Biology 11:1-16","Republic of the Philippines ","Phillipines ",12.3222,118.2987,NA,"","cytb",6,"729",0.87,NA,0.009,NA,"mtdna101",60
"268","Cephalopholis argus","Peacock hind","Gaither et al. 2011 BMC Evolutionary Biology 11:1-16","United Kingdom (British Indian Ocean Territory)  ","Diego Garcia ",-7.3262,72.5026,NA,"","cytb",33,"729",0.87,NA,0.003,NA,"mtdna101",60
"269","Cephalopholis argus","Peacock hind","Gaither et al. 2011 BMC Evolutionary Biology 11:1-16","United States","Baker/Howland ",0.479,-176.5281,NA,"","cytb",27,"729",0.68,NA,0.002,NA,"mtdna101",60
"270","Cephalopholis argus","Peacock hind","Gaither et al. 2011 BMC Evolutionary Biology 11:1-16","United States","Palmyra ",5.9023,-162.0788,NA,"","cytb",29,"729",0.65,NA,0.002,NA,"mtdna101",60
"271","Cephalopholis argus","Peacock hind","Gaither et al. 2011 BMC Evolutionary Biology 11:1-16","United States","Saipan ",15.1608,145.8097,NA,"","cytb",19,"729",0.77,NA,0.003,NA,"mtdna101",60
"272","Cephalopholis argus","Peacock hind","Gaither et al. 2012 Proceedings of the Royal Society B 279:3948-3957","United States","French Frigate Shoals ",23.7384,-166.1398,NA,"","cytb",4,"615",0.5,NA,0.001,NA,"mtdna101",60
"273","Cephalopholis argus","Peacock hind","Gaither et al. 2012 Proceedings of the Royal Society B 279:3948-3957","United States","Hawai'i Island ",19.5803,-156.0226,NA,"","cytb",51,"615",0.52,NA,0.001,NA,"mtdna101",60
"274","Cephalopholis argus","Peacock hind","Gaither et al. 2012 Proceedings of the Royal Society B 279:3948-3957","United States","Kaua'i ",21.8872,-159.681,NA,"","cytb",53,"615",0.59,NA,0.001,NA,"mtdna101",60
"275","Cephalopholis argus","Peacock hind","Gaither et al. 2012 Proceedings of the Royal Society B 279:3948-3957","United States","Maui",20.5068,-156.45,NA,"","cytb",53,"615",0.55,NA,0.001,NA,"mtdna101",60
"276","Cephalopholis argus","Peacock hind","Gaither et al. 2012 Proceedings of the Royal Society B 279:3948-3957","United States","Necker ",23.5766,-164.6977,NA,"","cytb",9,"615",0.56,NA,0.001,NA,"mtdna101",60
"277","Cephalopholis argus","Peacock hind","Gaither et al. 2012 Proceedings of the Royal Society B 279:3948-3957","United States","Nihoa",23.0563,-161.9168,NA,"","cytb",13,"615",0.56,NA,0.001,NA,"mtdna101",60
"278","Cephalopholis argus","Peacock hind","Gaither et al. 2012 Proceedings of the Royal Society B 279:3948-3957","United States","O'ahu",21.4925,-158.3121,NA,"","cytb",53,"615",0.61,NA,0.001,NA,"mtdna101",60
"279","Cephalopholis fulva","Coney","De Souza et al. 2015 Annals of the Brazilian Academy of Sciences 87:121-136","Brazil","Bahia state",-13,-38.4833333333333,NA,"2009","HVR I",48,"388",0.997,7e-04,0.023,0.0017,"mtdna102",44
"280","Cephalopholis fulva","Coney","De Souza et al. 2015 Annals of the Brazilian Academy of Sciences 87:121-136","Brazil","Ceará state",-3.7,-38.5,NA,"2009","HVR I",37,"388",0.998,0.001,0.023,0.002,"mtdna102",44
"281","Cephalopholis fulva","Coney","De Souza et al. 2015 Annals of the Brazilian Academy of Sciences 87:121-136","Brazil","Espírito Santo state",-20.3333333333333,-40.2333333333333,NA,"2009","HVR I",30,"388",0.977,0.0026,0.024,0.0024,"mtdna102",44
"282","Cephalopholis fulva","Coney","De Souza et al. 2015 Annals of the Brazilian Academy of Sciences 87:121-136","Brazil","Fernando de Noronha archipelago",-3.83333333333333,-32.4,NA,"2009","HVR I",36,"388",0.996,0.0012,0.022,0.0018,"mtdna102",44
"283","Cephalopholis fulva","Coney","De Souza et al. 2015 Annals of the Brazilian Academy of Sciences 87:121-136","Brazil","Rio Grande de Norte state",-5.26666666666667,-35.3666666666667,NA,"2009","HVR I",42,"388",0.994,0.0011,0.022,0.0017,"mtdna102",44
"284","Cephalopholis fulva","Coney","De Souza et al. 2015 Annals of the Brazilian Academy of Sciences 87:121-136","Brazil","Rocas atoll",-3.85,-33.8166666666667,NA,"2009","HVR I",11,"388",0.981,0.0139,0.024,0.0039,"mtdna102",44
"285","Cetengraulis edentulus","Atlantic anchoveta","Grant et al. 2010 Journal of Biogeography 37:1352-1362","Trinidad and Tobago ","Western Atlantic ",10.8283,-61.4356,NA,"","cytb",25,"521",0.853,NA,NA,NA,"mtdna101",18.2
"286","Chaetodon austriacus","Blacktail butterflyfish","Waldrop et al. 2016 J. Biogeogr. 43:1116-1129","Saudi Arabia","Al Lith",20.13003,40.259428,NA,"2005-2013","cytb",10,"605",0.2,0.0487,0,0,"mtdna102",13
"287","Chaetodon austriacus","Blacktail butterflyfish","Waldrop et al. 2016 J. Biogeogr. 43:1116-1129","Saudi Arabia","Yanbu",24.030697,38.081813,NA,"2005-2013","cytb",10,"605",0.866,0.0338,0.001,3e-04,"mtdna102",13
"288","Chaetodon lunulatus","Oval butterflyfish","Waldrop et al. 2016 J. Biogeogr. 43:1116-1129","Australia","Christmas Island",-10.480546,105.646813,NA,"2005-2013","cytb",6,"605",0.867,0.0527,0.005,0.0016,"mtdna102",14
"289","Chaetodon lunulatus","Oval butterflyfish","Waldrop et al. 2016 J. Biogeogr. 43:1116-1129","Fiji","Fiji",-17.052819,178.914892,NA,"2005-2013","cytb",30,"605",0.602,0.019,0.004,5e-04,"mtdna102",14
"290","Chaetodon lunulatus","Oval butterflyfish","Waldrop et al. 2016 J. Biogeogr. 43:1116-1129","French Polynesia","Mo'orea",-17.530509,-149.82914,NA,"2005-2013","cytb",32,"605",0.669,0.0152,0.005,5e-04,"mtdna102",14
"291","Chaetodon lunulatus","Oval butterflyfish","Waldrop et al. 2016 J. Biogeogr. 43:1116-1129","Japan","Okinawa Island",26.539661,128.018679,NA,"2005-2013","cytb",8,"605",0.643,0.0651,0.004,0.0011,"mtdna102",14
"292","Chaetodon lunulatus","Oval butterflyfish","Waldrop et al. 2016 J. Biogeogr. 43:1116-1129","Kiribati","Kanton Island",-2.796932,-171.64286,NA,"2005-2013","cytb",15,"605",0.695,0.0281,0.004,8e-04,"mtdna102",14
"293","Chaetodon lunulatus","Oval butterflyfish","Waldrop et al. 2016 J. Biogeogr. 43:1116-1129","Kiribati","Kiribati",1.799681,-157.365829,NA,"2005-2013","cytb",22,"605",0.589,0.0141,0.004,6e-04,"mtdna102",14
"294","Chaetodon lunulatus","Oval butterflyfish","Waldrop et al. 2016 J. Biogeogr. 43:1116-1129","Micronesia","Pohnpei",7.006456,158.199483,NA,"2005-2013","cytb",30,"605",0.782,0.0119,0.005,5e-04,"mtdna102",14
"295","Chaetodon lunulatus","Oval butterflyfish","Waldrop et al. 2016 J. Biogeogr. 43:1116-1129","Palau","Palau",7.300311,134.472996,NA,"2005-2013","cytb",26,"605",0.471,0.0124,0.004,4e-04,"mtdna102",14
"296","Chaetodon lunulatus","Oval butterflyfish","Waldrop et al. 2016 J. Biogeogr. 43:1116-1129","USA","Johnston Atoll",16.730722,-169.53371,NA,"2005-2013","cytb",31,"605",0.516,0.0043,0.004,5e-04,"mtdna102",14
"297","Chaetodon melapterus","Arabian butterflyfish","Waldrop et al. 2016 J. Biogeogr. 43:1116-1129","Djibouti","Maskali",11.658082,43.181065,NA,"2005-2013","cytb",17,"605",0.353,0.0856,0.001,2e-04,"mtdna102",13
"298","Chaetodon melapterus","Arabian butterflyfish","Waldrop et al. 2016 J. Biogeogr. 43:1116-1129","Djibouti","Obock",11.96087,43.292736,NA,"2005-2013","cytb",29,"605",0.778,0.1084,0.001,2e-04,"mtdna102",13
"299","Chaetodon meyeri","Scrawled butterflyfish","DiBattista et al. 2012 Journal of Heredity 103:617-629","Indian Ocean","Christmas Island",-10.0688888888889,105.100833333333,NA,"2008","cytb",31,"731",0.81,0.0126,0.0023,0.000269,"mtdna101",20
"300","Chaetodon meyeri","Scrawled butterflyfish","DiBattista et al. 2012 Journal of Heredity 103:617-629","Indian Ocean","Cocos-Keeling Islands",-12.0169444444444,96.15,NA,"2008","cytb",24,"731",0.9,0.0102,0.0029,0.000367,"mtdna101",20
"301","Chaetodon meyeri","Scrawled butterflyfish","DiBattista et al. 2012 Journal of Heredity 103:617-629","Indian Ocean","Diego Garcia",-7.05027777777778,72.0669444444444,NA,"2008","cytb",36,"731",0.6,0.0017,0.0016,2e-04,"mtdna101",20
"302","Chaetodon meyeri","Scrawled butterflyfish","DiBattista et al. 2012 Journal of Heredity 103:617-629","Indian Ocean","Republic of Kiribati",1.06833333333333,173.000833333333,NA,"2008","cytb",30,"731",0.9,0.0055,0.003,0.000347,"mtdna101",20
"303","Chaetodon meyeri","Scrawled butterflyfish","DiBattista et al. 2012 Journal of Heredity 103:617-629","Indian Ocean","Republic of Palau",7.05138888888889,134.068333333333,NA,"2008","cytb",7,"731",0.29,0.0756,0.0012,0.000416,"mtdna101",20
"304","Chaetodon meyeri","Scrawled butterflyfish","DiBattista et al. 2012 Journal of Heredity 103:617-629","Indian Ocean","Republic of Seychelles",-4.10027777777778,55.0680555555556,NA,"2008","cytb",6,"731",0.93,0.049,0.0022,0.000694,"mtdna101",20
"305","Chaetodon ornatissimus","Ornate butterflyfish","DiBattista et al. 2012 Journal of Heredity 103:617-629","French Polynesia","Moorea",-17.0841666666667,149.134166666667,NA,"2008","cytb",33,"731",0.89,0.007,0.0036,0.000383,"mtdna101",20
"306","Chaetodon ornatissimus","Ornate butterflyfish","DiBattista et al. 2012 Journal of Heredity 103:617-629","Indian Ocean","Christmas Island",-10.0688888888889,105.100833333333,NA,"2008","cytb",32,"731",0.9,0.0053,0.005,0.000513,"mtdna101",20
"307","Chaetodon ornatissimus","Ornate butterflyfish","DiBattista et al. 2012 Journal of Heredity 103:617-629","Indian Ocean","Cocos-Keeling Islands",-12.0169444444444,96.15,NA,"2008","cytb",32,"731",0.83,0.0088,0.0045,0.000477,"mtdna101",20
"308","Chaetodon ornatissimus","Ornate butterflyfish","DiBattista et al. 2012 Journal of Heredity 103:617-629","Indian Ocean","Republic of Kiribati",1.06833333333333,173.000833333333,NA,"2008","cytb",50,"731",0.75,0.0085,0.0033,0.000283,"mtdna101",20
"309","Chaetodon ornatissimus","Ornate butterflyfish","DiBattista et al. 2012 Journal of Heredity 103:617-629","Marquesas","Nuku Hiva",-8.135,-140.0175,NA,"2008","cytb",37,"731",0.82,0.0082,0.0033,0.000329,"mtdna101",20
"310","Chaetodon ornatissimus","Ornate butterflyfish","DiBattista et al. 2012 Journal of Heredity 103:617-629","Pacific Ocean","Palmyra Atoll",5.13555555555556,-162.002222222222,NA,"2008","cytb",14,"731",0.89,0.016,0.0043,0.000695,"mtdna101",20
"311","Chaetodon ornatissimus","Ornate butterflyfish","DiBattista et al. 2012 Journal of Heredity 103:617-629","Western Pacific Ocean","Republic of Palau",7.05138888888889,134.068333333333,NA,"2008","cytb",37,"731",0.86,0.008,0.0041,0.000411,"mtdna101",20
"312","Chaetodon tricinctus","Three-striped butterflyfish","van der Meer et al. 2013 Ecology and Evolution 3:1653-1666","Australia","Elizabeth Reef",-29.939211,159.062671,NA,"","cytb",30,"283",0.251,NA,0.001,NA,"mtdna102",15
"313","Chaetodon tricinctus","Three-striped butterflyfish","van der Meer et al. 2013 Ecology and Evolution 3:1653-1666","Australia","Lord Howe Island",-31.545811,159.082812,NA,"","cytb",16,"283",0.925,NA,0.008,NA,"mtdna102",15
"314","Chaetodon tricinctus","Three-striped butterflyfish","van der Meer et al. 2013 Ecology and Evolution 3:1653-1666","Australia","Middleton Reef",-29.469456,159.119101,NA,"","cytb",29,"283",0.197,NA,0.001,NA,"mtdna102",15
"315","Chaetodon tricinctus","Three-striped butterflyfish","van der Meer et al. 2013 Ecology and Evolution 3:1653-1666","Australia","Norfolk Island",-29.039921,167.945666,NA,"","cytb",22,"283",0.173,NA,0.001,NA,"mtdna102",15
"316","Chaetodon trifasciatus","Melon butterflyfish","Waldrop et al. 2016 J. Biogeogr. 43:1116-1129","","Seychelles",-4.335953,55.297839,NA,"2005-2013","cytb",21,"605",0.795,0.0168,0.088,0.0096,"mtdna102",15
"317","Chaetodon trifasciatus","Melon butterflyfish","Waldrop et al. 2016 J. Biogeogr. 43:1116-1129","Australia","Christmas Island",-10.480546,105.646813,NA,"2005-2013","cytb",14,"605",0.802,0.0251,0.01,0.0016,"mtdna102",15
"318","Chaetodon trifasciatus","Melon butterflyfish","Waldrop et al. 2016 J. Biogeogr. 43:1116-1129","Britain","Diego Garcia",-7.298257,72.423411,NA,"2005-2013","cytb",29,"605",0.672,0.0137,0.001,2e-04,"mtdna102",15
"319","Chromis multilineata","Brown chromis","Rocha et. al 2008 BMC Evolutionary Biology 8:157","Ascension","Ascension",-8,-14,NA,"","cytb",19,"802",0.98,NA,0.007,NA,"mtdna101",20
"320","Chromis multilineata","Brown chromis","Rocha et. al 2008 BMC Evolutionary Biology 8:157","Brazil","Cabo Frio",-23,-42,NA,"","cytb",14,"802",0.99,NA,0.007,NA,"mtdna101",20
"321","Chromis multilineata","Brown chromis","Rocha et. al 2008 BMC Evolutionary Biology 8:157","Brazil","Paraiba",-7.05,-34.4,NA,"","cytb",11,"802",1,NA,0.007,NA,"mtdna101",20
"322","Chromis multilineata","Brown chromis","Rocha et. al 2008 BMC Evolutionary Biology 8:157","Brazil","St. Paul's Rocks",1,-29,NA,"","cytb",17,"802",0.92,NA,0.006,NA,"mtdna101",20
"323","Chromis multilineata","Brown chromis","Rocha et. al 2008 BMC Evolutionary Biology 8:157","British Overseas Territory","St. Helena",-16,-5,NA,"","cytb",20,"802",0.99,NA,0.007,NA,"mtdna101",20
"324","Chromis multilineata","Brown chromis","Rocha et. al 2008 BMC Evolutionary Biology 8:157","Cape Verde","Cape Verde",16,-22,NA,"","cytb",24,"802",0.92,NA,0.003,NA,"mtdna101",20
"325","Chromis multilineata","Brown chromis","Rocha et. al 2008 BMC Evolutionary Biology 8:157","Grenada","Grenada",12,-61,NA,"","cytb",16,"802",0.97,NA,0.009,NA,"mtdna101",20
"326","Chromis multilineata","Brown chromis","Rocha et. al 2008 BMC Evolutionary Biology 8:157","Panama","Panama",10,-80,NA,"","cytb",19,"802",1,NA,0.008,NA,"mtdna101",20
"327","Chromis multilineata","Brown chromis","Rocha et. al 2008 BMC Evolutionary Biology 8:157","Sao Tome and Principe ","Sao Tome",0.56,6.5,NA,"","cytb",18,"802",0.81,NA,0.002,NA,"mtdna101",20
"328","Chromis multilineata","Brown chromis","Rocha et. al 2008 BMC Evolutionary Biology 8:157","U.S. Virgin Islands","St. Croix (USVI)",17,-64,NA,"","cytb",25,"802",0.99,NA,0.008,NA,"mtdna101",20
"329","Chromis viridis","Blue green damselfish","Liu et al. 2019 PeerJ 7:e7384","Australia","Lizard Island",-14.666513,145.462654,NA,"2007-2017","cytb",35,"911",0.968,0.0034,0.039,0.0032,"mtdna102",10
"330","Chromis viridis","Blue green damselfish","Liu et al. 2019 PeerJ 7:e7384","French Polynesia","Moorea Island",-17.53412,-149.830682,NA,"2007-2017","cytb",48,"911",0.785,0.0088,0.003,3e-04,"mtdna102",10
"331","Chromis viridis","Blue green damselfish","Liu et al. 2019 PeerJ 7:e7384","Indonesia","Amed",-8.333868,115.64842,NA,"2007-2017","cytb",19,"911",0.953,0.0083,0.007,9e-04,"mtdna102",10
"332","Chromis viridis","Blue green damselfish","Liu et al. 2019 PeerJ 7:e7384","Indonesia","Komodo",-8.561369,119.441041,NA,"2007-2017","cytb",18,"911",0.882,0.0151,0.014,0.0016,"mtdna102",10
"333","Chromis viridis","Blue green damselfish","Liu et al. 2019 PeerJ 7:e7384","Israel","Eliat",24.514481,34.958865,NA,"2007-2017","cytb",10,"911",0.956,0.0187,0.004,6e-04,"mtdna102",10
"334","Chromis viridis","Blue green damselfish","Liu et al. 2019 PeerJ 7:e7384","Japan","Sesoko Island",26.646333,127.864911,NA,"2007-2017","cytb",11,"911",0.946,0.0199,0.005,9e-04,"mtdna102",10
"335","Chromis viridis","Blue green damselfish","Liu et al. 2019 PeerJ 7:e7384","Madagascar","Toliara",-20.290536,44.27074,NA,"2007-2017","cytb",9,"911",0.889,0.0303,0.007,0.0013,"mtdna102",10
"336","Chromis viridis","Blue green damselfish","Liu et al. 2019 PeerJ 7:e7384","Taiwan","Dongsha",20.703534,116.724549,NA,"2007-2017","cytb",15,"911",0.933,0.0139,0.005,8e-04,"mtdna102",10
"337","Chrysiptera talboti","Talbot's demoiselle","Drew et. al 2008 Conservation Biology 22(4):965-975","Fiji","Central Fiji",-17.3,178.9,NA,"","control region",37,"384",NA,NA,0.007,0.000328798,"mtdna101",6
"338","Chrysiptera talboti","Talbot's demoiselle","Drew et. al 2008 Conservation Biology 22(4):965-975","Indonesia","Teluk Cenderawasih",-1.05,134.7,NA,"","control region",8,"384",NA,NA,0.02,0.002474874,"mtdna101",6
"339","Chrysiptera talboti","Talbot's demoiselle","Drew et. al 2008 Conservation Biology 22(4):965-975","Papau New Guinea","Milne Bay",-9.02,149.15,NA,"","control region",26,"384",NA,NA,0.01,0.000784465,"mtdna101",6
"340","Chrysiptera talboti","Talbot's demoiselle","Drew et. al 2008 Conservation Biology 22(4):965-975","Solomon Islands","Boneagi",-9.5,160.8,NA,"","control region",11,"384",NA,NA,0.002,0.001206045,"mtdna101",6
"341","Chrysoblephus laticeps","Roman seabream","Teske et. al 2010 Marine Biology 157:2029-2042","South Africa","Alphard Banks",-35.0333333333333,20.8666666666667,NA,"","control region ",9,"549",1,0.016666667,0.006,0.001333333,"mtdna101",50
"342","Chrysoblephus laticeps","Roman seabream","Teske et. al 2010 Marine Biology 157:2029-2042","South Africa","Bird Island MPA",33.8333333333333,26.3,NA,"","control region ",21,"549",1,0.004364358,0.006,0.000872872,"mtdna101",50
"343","Chrysoblephus laticeps","Roman seabream","Teske et. al 2010 Marine Biology 157:2029-2042","South Africa","False Bay",-34.1025,18.9758333333333,NA,"","control region ",27,"549",1,0.001924501,0.007,0.0007698,"mtdna101",50
"344","Chrysoblephus laticeps","Roman seabream","Teske et. al 2010 Marine Biology 157:2029-2042","South Africa","Plettenberg Bay",-34.02,23.8222222222222,NA,"","control region ",17,"549",1,0.004850713,0.011,0.001455214,"mtdna101",50
"345","Chrysoblephus laticeps","Roman seabream","Teske et. al 2010 Marine Biology 157:2029-2042","South Africa","Port Alfred",33.6041666666667,26.9033333333333,NA,"","control region ",20,"549",1,0.004472136,0.013,0.001565248,"mtdna101",50
"346","Chrysoblephus laticeps","Roman seabream","Teske et. al 2010 Marine Biology 157:2029-2042","South Africa","Struis Bay",-34.7961111111111,20.0719444444444,NA,"","control region ",16,"549",1,0.005,0.005,0.00075,"mtdna101",50
"347","Chrysoblephus laticeps","Roman seabream","Teske et. al 2010 Marine Biology 157:2029-2042","South Africa","Tsitsikamma NP",-34.0377777777778,23.9272222222222,NA,"","control region ",33,"549",1,0.001740777,0.008,0.000696311,"mtdna101",50
"348","Chrysoblephus puniceus","Slinger seabream","Duncan et al. 2015 Fisheries Research 164:64-72","Mozambique","Gaza",-25.209939,33.884123,NA,"","control region",33,"944",0.96,NA,0.01,NA,"mtdna102",85
"349","Chrysoblephus puniceus","Slinger seabream","Duncan et al. 2015 Fisheries Research 164:64-72","Mozambique","Inhaca",-26.016838,32.953338,NA,"","control region",29,"944",0.95,NA,0.012,NA,"mtdna102",85
"350","Chrysoblephus puniceus","Slinger seabream","Duncan et al. 2015 Fisheries Research 164:64-72","Mozambique","Ponta da Barra",-22.921416,35.601068,NA,"","control region",34,"944",0.98,NA,0.012,NA,"mtdna102",85
"351","Chrysoblephus puniceus","Slinger seabream","Duncan et al. 2015 Fisheries Research 164:64-72","Mozambique","Ponta de Ouro",-26.838163,32.88738,NA,"","control region",30,"944",0.97,NA,0.011,NA,"mtdna102",85
"352","Chrysoblephus puniceus","Slinger seabream","Duncan et al. 2015 Fisheries Research 164:64-72","Mozambique","Southern Inhambane",-23.862792,35.38148,NA,"","control region",43,"944",0.98,NA,0.011,NA,"mtdna102",85
"353","Chrysoblephus puniceus","Slinger seabream","Duncan et al. 2015 Fisheries Research 164:64-72","South Africa","Richards Bay",-28.80138,32.045279,NA,"","control region",32,"944",0.96,NA,0.011,NA,"mtdna102",85
"354","Chrysoblephus puniceus","Slinger seabream","Duncan et al. 2015 Fisheries Research 164:64-72","South Africa","Southern KZN",-30.149424,30.997112,NA,"","control region",42,"944",0.98,NA,0.012,NA,"mtdna102",85
"355","Chrysoblephus puniceus","Slinger seabream","Duncan et al. 2015 Fisheries Research 164:64-72","South Africa","Transkei",-32.546191,28.564466,NA,"","control region",38,"944",0.97,NA,0.012,NA,"mtdna102",85
"356","Cirrhilabrus punctatus","Dotted wrasse","Drew et. al 2008 Conservation Biology 22(4):965-975","Fiji","Central Fiji",-17.3,178.9,NA,"","control region",29,"384",NA,NA,0.02,0.001856953,"mtdna101",13
"357","Cirrhilabrus punctatus","Dotted wrasse","Drew et. al 2008 Conservation Biology 22(4):965-975","Papau New Guinea","Milne Bay",-9.02,149.15,NA,"","control region",9,"384",NA,NA,0.006,0.003333333,"mtdna101",13
"358","Cleisthenes herzensteini","Pointhead flounder","Xiao et. al 2011 Genetics 139:187-198","China","Qingdao",36.05,120.433333333333,NA,"2009","control region",13,"421",0.99,0.009707253,0.012,0.001941451,"mtdna101",47
"359","Cleisthenes herzensteini","Pointhead flounder","Xiao et. al 2011 Genetics 139:187-198","China","Rushan",36.55,121.733333333333,NA,"2009","control region",8,"421",0.96,0.027577164,0.009,0.00212132,"mtdna101",47
"360","Cleisthenes herzensteini","Pointhead flounder","Xiao et. al 2011 Genetics 139:187-198","East China Sea","East of China Sea",36,121,NA,"2009","control region",21,"421",0.97,0.006546537,0.011,0.001309307,"mtdna101",47
"361","Cleisthenes herzensteini","Pointhead flounder","Xiao et. al 2011 Genetics 139:187-198","Japan","Dosei",44.6166666666667,140.366666666667,NA,"2007","control region",17,"421",0.99,0.005578319,0.014,0.001940285,"mtdna101",47
"362","Cleisthenes herzensteini","Pointhead flounder","Xiao et. al 2011 Genetics 139:187-198","Japan","Doto",42.6333333333333,143.816666666667,NA,"2008","control region",28,"421",0.99,0.002645751,0.013,0.001511858,"mtdna101",47
"363","Cleisthenes herzensteini","Pointhead flounder","Xiao et. al 2011 Genetics 139:187-198","Japan","Monbetu",44.6,143.566666666667,NA,"2007","control region",28,"421",0.99,0.002267787,0.017,0.00170084,"mtdna101",47
"364","Cleisthenes herzensteini","Pointhead flounder","Xiao et. al 2011 Genetics 139:187-198","Japan","Sea of Japan",44.6166666666667,140.366666666667,NA,"2007","control region",17,"421",0.99,0.000557832,0.014,0.001940285,"mtdna101",47
"365","Cleisthenes herzensteini","Pointhead flounder","Xiao et. al 2011 Genetics 139:187-198","Japan","Sea of Okhotsk",44.5,143,NA,"2007","control region",28,"421",0.99,0.002267787,0.017,0.00170084,"mtdna101",47
"366","Cleisthenes herzensteini","Pointhead flounder","Xiao et. al 2011 Genetics 139:187-198","Japan","Tohoku",39.4,142.7,NA,"2008","control region",27,"421",0.98,0.003849002,0.017,0.001732051,"mtdna101",47
"367","Clupea pallasii pallasii","Pacific herring","Grant et al. 2012 Molecular Phylogenetics and Evolution 65:203-212","Canada ","Strait of Georgia, NE Pacific ",49.3473,-123.8583,NA,"2009","control region",24,"463",0.978,0.004286607,0.0214,0.002306603,"mtdna101",46
"368","Clupea pallasii pallasii","Pacific herring","Grant et al. 2012 Molecular Phylogenetics and Evolution 65:203-212","China ","Rongcheng, Yellow Sea ",36.7417,122.758,NA,"2003","control region",39,"463",0.908,0.003843076,0.0098,0.000880705,"mtdna101",46
"369","Clupea pallasii pallasii","Pacific herring","Grant et al. 2012 Molecular Phylogenetics and Evolution 65:203-212","Japan","Ishikari Bay, Sea of Japan ",43.3115,141.1668,NA,"2005","control region",24,"463",0.935,0.005103104,0.011,0.001245157,"mtdna101",46
"370","Clupea pallasii pallasii","Pacific herring","Grant et al. 2012 Molecular Phylogenetics and Evolution 65:203-212","Japan","North of Hokkaido, Okhotsk Sea ",42.8522,144.0288,NA,"2004","control region",26,"463",0.945,0.004706787,0.0111,0.00121592,"mtdna101",46
"371","Clupea pallasii pallasii","Pacific herring","Grant et al. 2012 Molecular Phylogenetics and Evolution 65:203-212","Japan","Shimane, Sea of Japan ",35.6807,133.5373,NA,"2007","control region",24,"463",0.975,0.003878359,0.0117,0.001326807,"mtdna101",46
"372","Clupea pallasii pallasii","Pacific herring","Grant et al. 2012 Molecular Phylogenetics and Evolution 65:203-212","Russia ","Akkeshi, East of Hokkaido",46.6355,143.6351,NA,"2005","control region",36,"463",0.975,0.002333333,0.0124,0.001116667,"mtdna101",46
"373","Clupea pallasii pallasii","Pacific herring","Grant et al. 2012 Molecular Phylogenetics and Evolution 65:203-212","Russia ","West Kamchatka, Okhotsk Sea ",52.8966,155.43,NA,"2007","control region",29,"463",0.948,0.005199469,0.0113,0.001169881,"mtdna101",46
"374","Clupea pallasii pallasii","Pacific herring","Grant et al. 2012 Molecular Phylogenetics and Evolution 65:203-212","United States","Coastal Washington, NE Pacific ",47.7511,-124.6,NA,"2005","control region",84,"463",0.98,0.000872872,0.0238,0.001320218,"mtdna101",46
"375","Clupea pallasii pallasii","Pacific herring","Grant et al. 2012 Molecular Phylogenetics and Evolution 65:203-212","United States","Sitka, Gulf of Alaska ",56.8881,-135.8982,NA,"2007","control region",26,"463",0.963,0.005295136,0.0235,0.002412228,"mtdna101",46
"376","Clupea pallasii pallasii","Pacific herring","Grant et al. 2012 Molecular Phylogenetics and Evolution 65:203-212","United States","Togiak, Bering Sea ",58.6739,-160.0814,NA,"2007","control region",30,"463",0.894,0.006755245,0.0125,0.001241504,"mtdna101",46
"377","Collichthys lucidus","Big head croaker","Song et al. 2013 Environ. Biol. Fish 97:69-77","China","Changjiang River",32.245265,120.983534,NA,"2011","control region",23,"400",0.834,NA,0.008,NA,"mtdna102",17
"378","Collichthys lucidus","Big head croaker","Song et al. 2013 Environ. Biol. Fish 97:69-77","China","Lianyungang",34.7787987,119.400045,NA,"2009","control region",23,"400",0.81,NA,0.014,NA,"mtdna102",17
"379","Collichthys lucidus","Big head croaker","Song et al. 2013 Environ. Biol. Fish 97:69-77","China","Ningde",26.651394,119.573647,NA,"2010","control region",22,"400",0.823,NA,0.023,NA,"mtdna102",17
"380","Collichthys lucidus","Big head croaker","Song et al. 2013 Environ. Biol. Fish 97:69-77","China","Shanghai",31.077399,121.910481,NA,"2009","control region",16,"400",0.908,NA,0.012,NA,"mtdna102",17
"381","Collichthys lucidus","Big head croaker","Song et al. 2013 Environ. Biol. Fish 97:69-77","China","Shenzhen",22.487684,113.978285,NA,"2009","control region",23,"400",0.755,NA,0.003,NA,"mtdna102",17
"382","Collichthys lucidus","Big head croaker","Song et al. 2013 Environ. Biol. Fish 97:69-77","China","Xiamen",24.465384,118.06044,NA,"2009","control region",21,"400",0.629,NA,0.003,NA,"mtdna102",17
"383","Collichthys lucidus","Big head croaker","Song et al. 2013 Environ. Biol. Fish 97:69-77","China","Zhoushan",29.965584,122.208477,NA,"2010","control region",23,"400",0.921,NA,0.026,NA,"mtdna102",17
"384","Conger conger","European conger","Correia et al. 2006. Fisheries Science. 72: 20-27","Portugal","Azores",38,-29,NA,"1999","control region",10,"432",0.978,0.0171,0.007,0.00158,"mtdna101",300
"385","Conger conger","European conger","Correia et al. 2006. Fisheries Science. 72: 20-27","Portugal","North Portuguese Continental Slope",41,-9,NA,"1989","control region",8,"432",1,0.0219,0.01,0.00212,"mtdna101",300
"386","Conger conger","European conger","Correia et al. 2012 Marine Biology 159:1509-1525","Azores","Azores",36,-20,NA,"2007","control region",92,"607",0.95,0.00209,0.0045,0.000281,"mtdna101",300
"387","Conger conger","European conger","Correia et al. 2012 Marine Biology 159:1509-1525","Ireland","Ireland",56.4333333333333,-9.56666666666667,NA,"2008","control region",54,"607",0.97,0.00272,0.005,0.000408,"mtdna101",300
"388","Conger conger","European conger","Correia et al. 2012 Marine Biology 159:1509-1525","Portugal","Madeira",32.7833333333333,-16.7333333333333,NA,"2007","control region",60,"607",0.89,0.00516,0.0038,0.000297,"mtdna101",300
"389","Conger conger","European conger","Correia et al. 2012 Marine Biology 159:1509-1525","Portugal","North Portugal",41.1833333333333,-8.96666666666667,NA,"2007","control region",60,"607",0.96,0.00387,0.0043,0.000336,"mtdna101",300
"390","Conger conger","European conger","Correia et al. 2012 Marine Biology 159:1509-1525","Portugal","South Portugal",36.9166666666667,-9.25,NA,"2006","control region",26,"607",0.92,0.00588,0.004,0.00049,"mtdna101",300
"391","Conger conger","European conger","Correia et al. 2012 Marine Biology 159:1509-1525","Spain","Mallorca",39.25,2.333333,NA,"2007","control region",55,"607",0.74,0.00809,0.0021,0.000202,"mtdna101",300
"392","Coris bulbifrons","Doubleheader","van der Meer et al. 2015 Coral Reefs 34:393-402","Australia","Elizabeth Reef",-29.939211,159.062671,NA,"","D-loop",8,"341",1,NA,0.0254,NA,"mtdna102",60
"393","Coris bulbifrons","Doubleheader","van der Meer et al. 2015 Coral Reefs 34:393-402","Australia","Lord Howe Island",-31.545811,159.082812,NA,"","D-loop",16,"341",0.98,NA,0.015,NA,"mtdna102",60
"394","Coris bulbifrons","Doubleheader","van der Meer et al. 2015 Coral Reefs 34:393-402","Australia","Middleton Reef",-29.469456,159.119101,NA,"","D-loop",20,"341",0.96,NA,0.0194,NA,"mtdna102",60
"395","Coris bulbifrons","Doubleheader","van der Meer et al. 2015 Coral Reefs 34:393-402","Australia","Norfolk Island",-29.039921,167.945666,NA,"","D-loop",37,"341",0.99,NA,0.0204,NA,"mtdna102",60
"396","Coryphaenoides mediterraneus","Mediterranean grenadier","Catarino et al. 2017 PLoS ONE 12:e0174988","Atlantic Ocean","MAR_2",51.8334,-29.9833,NA,"2011-2012","cytochrome c oxidase subunit I",10,"613",0.6,NA,0.0011,NA,"mtdna102",73
"397","Coryphaenoides mediterraneus","Mediterranean grenadier","Catarino et al. 2017 PLoS ONE 12:e0174988","Atlantic Ocean","MAR_3",42.911,-29.2388,NA,"2011-2012","cytochrome c oxidase subunit I",38,"613",0.542,NA,0.0012,NA,"mtdna102",73
"398","Coryphaenoides mediterraneus","Mediterranean grenadier","Catarino et al. 2017 PLoS ONE 12:e0174988","Atlantic Ocean","ROC",57,9.5,NA,"2011","cytochrome c oxidase subunit I",49,"613",0.119,NA,2e-04,NA,"mtdna102",73
"399","Crystallias matsushimae","","Tohkairin et al. 2016 Ichthyol. Res. 63:370-381","Japan","N Honshu",40.29908,140.3791,NA,"","cytb",23,"1010",0.96,0.00459,0.00361,0.00044,"mtdna102",38
"400","Crystallias matsushimae","","Tohkairin et al. 2016 Ichthyol. Res. 63:370-381","Japan","N Honshu",40.29908,140.3791,NA,"","cytochrome c oxidase subunit I",23,"396",0.597,0.01314,0.00192,0.00034,"mtdna102",38
"401","Crystallias matsushimae","","Tohkairin et al. 2016 Ichthyol. Res. 63:370-381","Japan","Sea of Okhotsk",44.68194,143.2674,NA,"","cytb",42,"1010",0.879,0.00525,0.00374,0.00033,"mtdna102",38
"402","Crystallias matsushimae","","Tohkairin et al. 2016 Ichthyol. Res. 63:370-381","Japan","Sea of Okhotsk",44.68194,143.2674,NA,"","cytochrome c oxidase subunit I",42,"396",0.767,0.00772,0.00413,0.00043,"mtdna102",38
"403","Crystallias matsushimae","","Tohkairin et al. 2016 Ichthyol. Res. 63:370-381","South Korea","Korean Peninsula",38.205319,128.601817,NA,"","cytb",8,"1010",0.464,0.01414,5e-04,0.00019,"mtdna102",38
"404","Cynoscion nebulosus","Spotted weakfish","Anderson and Karel 2009 Marine and Coastal Fisheries: Dynamics, Management, and Ecosystem Science 1:121-132","USA","AB",28,-96.9,NA,"2003-2005","control region",42,"373",0.89,NA,0.006,NA,"mtdna101",100
"405","Cynoscion nebulosus","Spotted weakfish","Anderson and Karel 2009 Marine and Coastal Fisheries: Dynamics, Management, and Ecosystem Science 1:121-132","USA","CC",27.7,-97.2,NA,"2003-2005","control region",42,"373",0.89,NA,0.007,NA,"mtdna101",100
"406","Cynoscion nebulosus","Spotted weakfish","Anderson and Karel 2009 Marine and Coastal Fisheries: Dynamics, Management, and Ecosystem Science 1:121-132","USA","EM",28.69,-95.8,NA,"2003-2005","control region",28,"373",0.92,NA,0.007,NA,"mtdna101",100
"407","Cynoscion nebulosus","Spotted weakfish","Anderson and Karel 2009 Marine and Coastal Fisheries: Dynamics, Management, and Ecosystem Science 1:121-132","USA","LL",26.3,-97.27,NA,"2003-2005","control region",27,"373",0.89,NA,0.007,NA,"mtdna101",100
"408","Cynoscion nebulosus","Spotted weakfish","Anderson and Karel 2009 Marine and Coastal Fisheries: Dynamics, Management, and Ecosystem Science 1:121-132","USA","MB",28.4,-96.35,NA,"2003-2005","control region",27,"373",0.94,NA,0.007,NA,"mtdna101",100
"409","Cynoscion nebulosus","Spotted weakfish","Anderson and Karel 2009 Marine and Coastal Fisheries: Dynamics, Management, and Ecosystem Science 1:121-132","USA","SB",28.27,-96.7,NA,"2003-2005","control region",40,"373",0.9,NA,0.007,NA,"mtdna101",100
"410","Cynoscion nebulosus","Spotted weakfish","Anderson and Karel 2009 Marine and Coastal Fisheries: Dynamics, Management, and Ecosystem Science 1:121-132","USA","SL",29.8,-93.8,NA,"2003-2005","control region",44,"373",0.75,NA,0.005,NA,"mtdna101",100
"411","Cynoscion nebulosus","Spotted weakfish","Anderson and Karel 2009 Marine and Coastal Fisheries: Dynamics, Management, and Ecosystem Science 1:121-132","USA","UL",27.25,-97.4,NA,"2003-2005","control region",30,"373",0.87,NA,0.006,NA,"mtdna101",100
"412","Dalatias licha","Kitefin shark","Vella, Vella & Schembri (2017) Marine Genomics 36:17-23","","Malta",35.951019,14.361835,NA,"2003-2017","cytochrome c oxidase subunit I",7,"610",0.286,0.196,5e-04,6e-04,"mtdna103",182
"413","Dasyatis pastinaca","Common stingray","Vella, Vella & Schembri (2017) Marine Genomics 36:17-23","","Malta",35.951019,14.361835,NA,"2003-2017","ND2",8,"990",0.25,0.18,5e-04,5e-04,"mtdna103",64
"414","Diaphus theta","California headlightfish","Kojima et. al 2009 Journal of Oceanography 65:187-193","Pacific Ocean","E3",51.8,-144.5,NA,"","cytb",17,"621",0.93,NA,0.00426,NA,"mtdna101",11.4
"415","Diaphus theta","California headlightfish","Kojima et. al 2009 Journal of Oceanography 65:187-193","Pacific Ocean","W2",42.79,146.9,NA,"","cytb",20,"621",0.95,NA,0.00497,NA,"mtdna101",11.4
"416","Diaphus theta","California headlightfish","Kojima et. al 2009 Journal of Oceanography 65:187-193","Pacific Ocean","W4",49.5,173.9,NA,"","cytb",20,"621",0.83,NA,0.0032,NA,"mtdna101",11.4
"417","Dicentrarchus labrax","European seabass","Lemaire, Versini & Bonhomme 2005","Algeria","AGLA",36.930153,7.777423,NA,"1997-2002","cytb",51,"304",0.04,NA,5e-04,NA,"mtdna101",103
"418","Dicentrarchus labrax","European seabass","Lemaire, Versini & Bonhomme 2005","Belgium","BANV",51.291558,2.798765,NA,"1997-2002","cytb",41,"304",0.14,NA,0.002,NA,"mtdna101",103
"419","Dicentrarchus labrax","European seabass","Lemaire, Versini & Bonhomme 2005","France","FBRE",48.579197,-2.689803,NA,"1997-2002","cytb",38,"304",0.36,NA,0.004,NA,"mtdna101",103
"420","Dicentrarchus labrax","European seabass","Lemaire, Versini & Bonhomme 2005","France","FMRS",43.133,5.05194444444444,NA,"1997-2002","cytb",60,"304",0.1,NA,4e-04,NA,"mtdna101",103
"421","Dicentrarchus labrax","European seabass","Lemaire, Versini & Bonhomme 2005","France","FPRE",43.45,3.783333,NA,"1997-2002","cytb",20,"304",0.1,NA,4e-04,NA,"mtdna101",103
"422","Dicentrarchus labrax","European seabass","Lemaire, Versini & Bonhomme 2005","France","FYEU",46.731184,-2.328105,NA,"1997-2002","cytb",22,"304",0.4,NA,0.005,NA,"mtdna101",103
"423","Dicentrarchus labrax","European seabass","Lemaire, Versini & Bonhomme 2005","Morocco","MMAR",35.626061,-5.256336,NA,"1997-2002","cytb",14,"304",0.53,NA,0.007,NA,"mtdna101",103
"424","Dicentrarchus labrax","European seabass","Lemaire, Versini & Bonhomme 2005","Morocco","MNAD",35.175243,-2.906444,NA,"1997-2002","cytb",9,"304",0.69,NA,0.01,NA,"mtdna101",103
"425","Dicentrarchus labrax","European seabass","Lemaire, Versini & Bonhomme 2005","Morocco","MRBT",34.003488,-6.921824,NA,"1997-2002","cytb",35,"304",0.44,NA,0.005,NA,"mtdna101",103
"426","Dicentrarchus labrax","European seabass","Lemaire, Versini & Bonhomme 2005","Portugal","PAVR",40.659132,-8.776491,NA,"1997-2002","cytb",48,"304",0.37,NA,0.005,NA,"mtdna101",103
"427","Dicentrarchus labrax","European seabass","Lemaire, Versini & Bonhomme 2005","Spain","EMAM",37.763914,-0.780593,NA,"1997-2002","cytb",32,"304",0.06,NA,2e-04,NA,"mtdna101",103
"428","Dicentrarchus labrax","European seabass","Lemaire, Versini & Bonhomme 2005","Tunisia","TBIZ",37.416073,9.815259,NA,"1997-2002","cytb",29,"304",0.31,NA,0.003,NA,"mtdna101",103
"429","Dicentrarchus labrax","European seabass","Lemaire, Versini & Bonhomme 2005","Tunisia","TGOU",36.784108,10.42604,NA,"1997-2002","cytb",27,"304",0.07,NA,3e-04,NA,"mtdna101",103
"430","Dicentrarchus labrax","European seabass","Lemaire, Versini & Bonhomme 2005","Tunisia","TISK",37.16,9.10166666666667,NA,"1997-2002","cytb",38,"304",0.15,NA,6e-04,NA,"mtdna101",103
"431","Diplodus sargus","White seabream","Kaoueche et al. 2013. African Journal of Marine Science","Mediterranian Sea","Bizerta",37.544577,9.686279,NA,"","cytb",19,"671",0.578,NA,0.001,NA,"mtdna101",45
"432","Diplodus sargus","White seabream","Kaoueche et al. 2013. African Journal of Marine Science","Mediterranian Sea","El Biban Lagoon",34.052659,10.389404,NA,"","cytb",7,"671",0.952,NA,0.0024,NA,"mtdna101",45
"433","Diplodus sargus","White seabream","Kaoueche et al. 2013. African Journal of Marine Science","Mediterranian Sea","Gabes Gulf",34.288992,10.323486,NA,"","cytb",7,"671",0.857,NA,0.0017,NA,"mtdna101",45
"434","Diplodus sargus","White seabream","Kaoueche et al. 2013. African Journal of Marine Science","Mediterranian Sea","Ghar Melh Lagoon",36.949892,10.389404,NA,"","cytb",8,"671",0.785,NA,0.0018,NA,"mtdna101",45
"435","Diplodus sargus","White seabream","Kaoueche et al. 2013. African Journal of Marine Science","Mediterranian Sea","Mahdia",35.675147,11.114502,NA,"","cytb",25,"671",0.77,NA,0.0017,NA,"mtdna101",45
"436","Diplodus sargus","White seabream","Gonzalez-Wanguemert & Perez-Ruzafa 2012 Marine Ecology 33:337-349","France ","Banyuls",42.6,3.1758,NA,"2006.5","cytb",22,"661",0.5513,NA,0.0021,NA,"mtdna101",45
"437","Diplodus sargus","White seabream","Gonzalez-Wanguemert & Perez-Ruzafa 2012 Marine Ecology 33:337-349","Portugal ","Quarteira ",37.0628,-8.1064,NA,"2006.5","cytb",25,"661",0.5524,NA,9e-04,NA,"mtdna101",45
"438","Diplodus sargus","White seabream","Gonzalez-Wanguemert & Perez-Ruzafa 2012 Marine Ecology 33:337-349","Portugal ","Ria Formosa ",37.0276,-7.8183,NA,"2006.5","cytb",24,"661",0.7572,NA,0.0045,NA,"mtdna101",45
"439","Diplodus sargus","White seabream","Gonzalez-Wanguemert & Perez-Ruzafa 2012 Marine Ecology 33:337-349","Spain ","Galicia ",43.2277,-9.218,NA,"2006.5","cytb",24,"661",0.5507,NA,0.0011,NA,"mtdna101",45
"440","Diplodus sargus","White seabream","Gonzalez-Wanguemert & Perez-Ruzafa 2012 Marine Ecology 33:337-349","Spain ","Mar Menor ",37.6909,-0.8237,NA,"2006.5","cytb",22,"661",0.8528,NA,0.0021,NA,"mtdna101",45
"441","Diplodus sargus","White seabream","Gonzalez-Wanguemert & Perez-Ruzafa 2012 Marine Ecology 33:337-349","Spain ","Murica ",37.6409,-0.6912,NA,"2006.5","cytb",25,"661",0.5604,NA,0.0016,NA,"mtdna101",45
"442","Diplodus sargus","White seabream","Gonzalez-Wanguemert et al. 2011 Marine Biology Research 7:250-260","Italy ","Castellamare ",38.3275,12.5785,NA,"2004.5","control region",20,"410",1,NA,0.0176,NA,"mtdna101",45
"443","Diplodus sargus","White seabream","Gonzalez-Wanguemert et al. 2011 Marine Biology Research 7:250-260","Portugal ","Azores ",37.8115,-24.1,NA,"2004.5","control region",20,"410",0.9766,NA,0.023,NA,"mtdna101",45
"444","Diplodus sargus","White seabream","Gonzalez-Wanguemert et al. 2011 Marine Biology Research 7:250-260","Portugal ","Faro",37.0163,-8.2477,NA,"2004.5","control region",20,"410",1,NA,0.0234,NA,"mtdna101",45
"445","Diplodus sargus","White seabream","Gonzalez-Wanguemert et al. 2011 Marine Biology Research 7:250-260","Spain ","Canary Islands ",28.9792,-15.0897,NA,"2004.5","control region",20,"410",0.9872,NA,0.0247,NA,"mtdna101",45
"446","Diplodus sargus","White seabream","Gonzalez-Wanguemert et al. 2011 Marine Biology Research 7:250-260","Spain ","Mallorca ",39.1933,3.027,NA,"2004.5","control region",22,"410",0.9926,NA,0.0218,NA,"mtdna101",45
"447","Diplodus sargus","White seabream","Gonzalez-Wanguemert et al. 2011 Marine Biology Research 7:250-260","Tunisia ","Tunisia ",37.2652,10.7308,NA,"2004.5","control region",22,"410",1,NA,0.0271,NA,"mtdna101",45
"448","Diplodus vulgaris","Common two-banded seabream","Stefanni et al. 2015 Heredity 115:527-537","Italy","Palermo",38.121556,13.377875,NA,"2007","control region",28,"344-345",1,0.004,0.018,0.002,"mtdna102",45
"449","Diplodus vulgaris","Common two-banded seabream","Stefanni et al. 2015 Heredity 115:527-537","Italy","Torre Guaceto",40.718263,17.793467,NA,"2007","control region",11,"344-345",0.964,0.029,0.02,0.005,"mtdna102",45
"450","Diplodus vulgaris","Common two-banded seabream","Stefanni et al. 2015 Heredity 115:527-537","Portugal","Azores Islands",38.66108,-28.694561,NA,"2007-2008","control region",23,"344-345",0.668,0.035,0.014,0.004,"mtdna102",45
"451","Diplodus vulgaris","Common two-banded seabream","Stefanni et al. 2015 Heredity 115:527-537","Portugal","Madeira Island",33.586712,-16.66211,NA,"2009","control region",30,"344-345",0.94,0.006,0.017,0.002,"mtdna102",45
"452","Diplodus vulgaris","Common two-banded seabream","Stefanni et al. 2015 Heredity 115:527-537","Portugal","Malta Island",35.897186,14.446366,NA,"2008","control region",11,"344-345",1,0.157,0.023,0.011,"mtdna102",45
"453","Diplodus vulgaris","Common two-banded seabream","Stefanni et al. 2015 Heredity 115:527-537","Portugal","Portugal C.",38.56595,-9.29509,NA,"2008","control region",34,"344-345",1,0.082,0.022,0.002,"mtdna102",45
"454","Diplodus vulgaris","Common two-banded seabream","Stefanni et al. 2015 Heredity 115:527-537","Portugal","Portugal S.",37.10449,-8.59826,NA,"2008","control region",25,"344-345",0.961,0.006,0.017,0.002,"mtdna102",45
"455","Diplodus vulgaris","Common two-banded seabream","Stefanni et al. 2015 Heredity 115:527-537","Spain","Balearic Island",39.560668,2.648136,NA,"2007","control region",14,"344-345",1,0.012,0.017,0.003,"mtdna102",45
"456","Diplodus vulgaris","Common two-banded seabream","Stefanni et al. 2015 Heredity 115:527-537","Spain","Cadiz",36.530452,-6.289334,NA,"2008","control region",20,"344-345",0.984,0.006,0.013,0.002,"mtdna102",45
"457","Dipturus oxyrinchus","Longnosed skate","Vella, Vella & Schembri (2017) Marine Genomics 36:17-23","","Malta",35.951019,14.361835,NA,"2003-2017","cytochrome c oxidase subunit I",10,"610",0.2,0.154,3e-04,5e-04,"mtdna103",150
"458","Dipturus oxyrinchus","Longnosed skate","Vella, Vella & Schembri (2017) Marine Genomics 36:17-23","","Malta",35.951019,14.361835,NA,"2003-2017","ND2",10,"990",0.8,0.1,0.0014,0.001,"mtdna103",150
"459","Dipturus trachyderma","Roughskin skate","Vargas-Caro et al. 2017 PLoS ONE 12:e0172255","Chile","Puerto Montt",-41.4733333333333,-72.94,NA,"","control region",14,"556",0.275,0.0396,7e-04,2e-04,"mtdna102",264
"460","Dipturus trachyderma","Roughskin skate","Vargas-Caro et al. 2017 PLoS ONE 12:e0172255","Chile","San Antonio",-33.5916666666667,-71.6166666666667,NA,"","control region",52,"556",0.038,0.0051,1e-04,0,"mtdna102",264
"461","Dipturus trachyderma","Roughskin skate","Vargas-Caro et al. 2017 PLoS ONE 12:e0172255","Chile","Valdivia",-39.875,-73.4,NA,"","control region",53,"556",0.329,0.0106,0.0036,3e-04,"mtdna102",264
"462","Eleginops maclovinus","Patagonian blennie","Ceballos et al. 2012 Marine Biology 159:499-505","Argentina ","Canal Beagle",-54.8134,-68.2944,NA,"","cytb",36,"833",0.88,NA,0.0038,NA,"mtdna101",90
"463","Eleginops maclovinus","Patagonian blennie","Ceballos et al. 2012 Marine Biology 159:499-505","Argentina ","Puerto Madryn",-42.761,-65.0197,NA,"","cytb",27,"833",0.96,NA,0.0054,NA,"mtdna101",90
"464","Eleginops maclovinus","Patagonian blennie","Ceballos et al. 2012 Marine Biology 159:499-505","Argentina ","Puerto San Julin",-49.3224,-67.7192,NA,"","cytb",24,"833",0.86,NA,0.0035,NA,"mtdna101",90
"465","Eleginops maclovinus","Patagonian blennie","Ceballos et al. 2012 Marine Biology 159:499-505","Argentina ","Punta Mar_a ",-53.772,-67.683,NA,"","cytb",38,"833",0.87,NA,0.0036,NA,"mtdna101",90
"466","Eleginops maclovinus","Patagonian blennie","Ceballos et al. 2012 Marine Biology 159:499-505","Argentina ","Rada Tilly",-42.7584,-65.0314,NA,"","cytb",25,"833",0.89,NA,0.0026,NA,"mtdna101",90
"467","Eleginops maclovinus","Patagonian blennie","Ceballos et al. 2012 Marine Biology 159:499-505","Argentina ","San Antonio Oeste (SAO)",-40.7757,-64.9755,NA,"","cytb",25,"833",0.9,NA,0.0047,NA,"mtdna101",90
