"","spp","CommonName","Source","Country","Site","lat","lon","stockid","CollectionYear","MarkerName","n","bp","He","Hese","Pi","Pise"
"1","Acanthocybium solandri","Wahoo","Garber, Tringali & Franks 2005","","Caribbean Sea off the Cayman Islands",19.303,-75,NA,"2001","control region",23,890,1,NA,0.052,NA
"2","Acanthocybium solandri","Wahoo","Garber, Tringali & Franks 2005","Bahamas","Bimini, Bahamas",25.739,-78.9652777777778,NA,"1997/1998","control region",40,890,1,NA,0.05,NA
"3","Acanthocybium solandri","Wahoo","Garber, Tringali & Franks 2005","United States","Atlantic Ocean off North Carolina",34.8,-70,NA,"2000/2001","control region",23,890,1,NA,0.053,NA
"4","Acanthocybium solandri","Wahoo","Garber, Tringali & Franks 2005","United States","East Central Florida",28.304,-75,NA,"2001","control region",30,890,1,NA,0.055,NA
"5","Acanthocybium solandri","Wahoo","Garber, Tringali & Franks 2005","United States","Northern Gulf of Mexico",29.229,-84,NA,"1998-2000","control region",54,890,0.999,NA,0.055,NA
"6","Acanthocybium solandri","Wahoo","Garber, Tringali & Franks 2005","United States","Southern tip of Florida",25.205,-76,NA,"2000/2001","control region",21,890,0.995,NA,0.049,NA
"7","Acanthocybium solandri","Wahoo","Garber, Tringali & Franks 2005","USA","Central Pacific Ocean off Hawaiian Islands",22,-158,NA,"2000","control region",40,890,1,NA,0.055,NA
"8","Acanthopagrus schlegeli","black porgy","Jean et al. 1998","Taiwan","Fulung",25.066,121.133333333333,NA,"","5' end of D-loop region, 3' end of D-region, tRNAPhe gene, and 5' end of 12S rRNA gene",7,717,0.8792,NA,0.00381,NA
"9","Acanthopagrus schlegeli","black porgy","Jean et al. 1998","Taiwan","Matsu",26.164,120,NA,"","5' end of D-loop region, 3' end of D-region, tRNAPhe gene, and 5' end of 12S rRNA gene",6,717,0.9091,NA,0.00399,NA
"10","Acanthopagrus schlegeli","black porgy","Jean et al. 1998","Taiwan","Penghu",23.554,119.083333333333,NA,"","5' end of D-loop region, 3' end of D-region, tRNAPhe gene, and 5' end of 12S rRNA gene",6,717,0.9091,NA,0.00269,NA
"11","Acanthopagrus schlegeli","black porgy","Jean et al. 1998","Taiwan","Taihsi",23.655,120.033333333333,NA,"","5' end of D-loop region, 3' end of D-region, tRNAPhe gene, and 5' end of 12S rRNA gene",6,717,0.8485,NA,0.00232,NA
"12","Acanthopagrus schlegeli","black porgy","Jean et al. 1998","Taiwan","Tanshui",25.165,121.033333333333,NA,"","5' end of D-loop region, 3' end of D-region, tRNAPhe gene, and 5' end of 12S rRNA gene",6,717,0.9091,NA,0.00232,NA
"13","Acanthopagrus schlegeli","black porgy","Jean et al. 1998","Taiwan","Tungkang",22.447,120.1,NA,"","5' end of D-loop region, 3' end of D-region, tRNAPhe gene, and 5' end of 12S rRNA gene",6,717,0.7879,NA,0.00316,NA
"14","Acanthopagrus schlegeli","black porgy","Jean et al. 1998","Taiwan","Wuchi",24.187,120.1,NA,"","5' end of D-loop region, 3' end of D-region, tRNAPhe gene, and 5' end of 12S rRNA gene",6,717,0.8485,NA,0.00274,NA
"15","Acanthurus nigrofuscus","Brown Surgeonfish","Eble et al. 2011 Journal of Marine Biology 2011:518516","Costa Rica","Cocos Islands",5.08361111111111,87.0019444444444,NA,"2008","cytb",32,694,0.88,0.04,0.003,0.0019
"16","Acanthurus nigrofuscus","Brown Surgeonfish","Eble et al. 2011 Journal of Marine Biology 2011:518516","French Polynesia","Moorea",-16.9158333333333,149.134166666667,NA,"2008","cytb",31,694,0.78,0.08,0.003,0.0019
"17","Acanthurus nigrofuscus","Brown Surgeonfish","Eble et al. 2011 Journal of Marine Biology 2011:518516","Indian Ocean","Christmas Island",-9.93111111111111,105.100833333333,NA,"2008","cytb",51,694,0.85,0.03,0.0025,0.0016
"18","Acanthurus nigrofuscus","Brown Surgeonfish","Eble et al. 2011 Journal of Marine Biology 2011:518516","Indian Ocean","Diego Garcia",-6.94972222222222,72.0669444444444,NA,"2008","cytb",32,694,0.85,0.05,0.003,0.0017
"19","Acanthurus nigrofuscus","Brown Surgeonfish","Eble et al. 2011 Journal of Marine Biology 2011:518516","Indian Ocean","Seychelles",-3.89972222222222,55.0680555555556,NA,"2008","cytb",32,694,0.72,0.07,0.0017,0.0012
"20","Acanthurus nigrofuscus","Brown Surgeonfish","Eble et al. 2011 Journal of Marine Biology 2011:518516","Pacific Ocean","Kiritimati",1.135,-156.933333333333,NA,"2008","cytb",35,694,0.89,0.04,0.0032,0.002
"21","Acanthurus nigrofuscus","Brown Surgeonfish","Eble et al. 2011 Journal of Marine Biology 2011:518516","South Pacific Ocean","Fiji",-18,179,NA,"2008","cytb",30,694,0.91,0.03,0.0031,0.002
"22","Acanthurus nigrofuscus","Brown Surgeonfish","Eble et al. 2011 Journal of Marine Biology 2011:518516","USA","French Frigate Shoals",23.1177777777778,-165.982222222222,NA,"2006","cytb",33,694,0.72,0.08,0.0021,0.0013
"23","Acanthurus nigrofuscus","Brown Surgeonfish","Eble et al. 2011 Journal of Marine Biology 2011:518516","USA","Gardner Pinnacles",24.1525,-166.8475,NA,"2006","cytb",25,694,0.72,0.08,0.0021,0.0014
"24","Acanthurus nigrofuscus","Brown Surgeonfish","Eble et al. 2011 Journal of Marine Biology 2011:518516","USA","Hawaii Island",19.085,-154.916666666667,NA,"2006","cytb",33,694,0.65,0.09,0.0022,0.0015
"25","Acanthurus nigrofuscus","Brown Surgeonfish","Eble et al. 2011 Journal of Marine Biology 2011:518516","USA","Kauai",22.0022222222222,-158.916666666667,NA,"2006","cytb",26,694,0.81,0.06,0.0023,0.0015
"26","Acanthurus nigrofuscus","Brown Surgeonfish","Eble et al. 2011 Journal of Marine Biology 2011:518516","USA","Maui",20.1333333333333,-155.949166666667,NA,"2006","cytb",36,694,0.77,0.06,0.003,0.0018
"27","Acanthurus nigrofuscus","Brown Surgeonfish","Eble et al. 2011 Journal of Marine Biology 2011:518516","USA","Molokai",21.0175,-156.999166666667,NA,"2006","cytb",29,694,0.71,0.08,0.0024,0.0016
"28","Acanthurus nigrofuscus","Brown Surgeonfish","Eble et al. 2011 Journal of Marine Biology 2011:518516","USA","Nihoa",23.0016666666667,-160.849444444444,NA,"2006","cytb",40,694,0.73,0.06,0.0026,0.0016
"29","Acanthurus nigrofuscus","Brown Surgeonfish","Eble et al. 2011 Journal of Marine Biology 2011:518516","USA","Oahu",21.0683333333333,-156.847777777778,NA,"2006","cytb",39,694,0.7,0.07,0.0019,0.0013
"30","Acanthurus nigrofuscus","Brown Surgeonfish","Eble et al. 2011 Journal of Marine Biology 2011:518516","USA","Pearl & Hermes Reef",27.1333333333333,-174.865277777778,NA,"2006","cytb",20,694,0.87,0.06,0.0045,0.0027
"31","Acanthurus nigrofuscus","Brown Surgeonfish","Eble et al. 2011 Journal of Marine Biology 2011:518516","Western Pacific Ocean","Palau",7.05138888888889,134.068333333333,NA,"2008","cytb",36,694,0.9,0.03,0.0028,0.0018
"32","Acanthurus nigroris","Pacific Blueline Surgeonfish","DiBattista et al. 2011 Journal of Marine Biology 2011:839134","Pacific Ocean","American Samoa",-13.95,-170,NA,"2007","cytb",23,797,0.94,0.034,0.0054,0.0031
"33","Acanthurus nigroris","Pacific Blueline Surgeonfish","DiBattista et al. 2011 Journal of Marine Biology 2011:839134","Pacific Ocean","Line Islands",-2,-155.916666666667,NA,"2007","cytb",24,797,0.95,0.029,0.0053,0.0031
"34","Acanthurus nigroris","Pacific Blueline Surgeonfish","DiBattista et al. 2011 Journal of Marine Biology 2011:839134","Pacific Ocean","Marshall Islands",7.00166666666667,-170.965,NA,"2007","cytb",19,797,1,0.017,0.0065,0.0037
"35","Acanthurus nigroris","Pacific Blueline Surgeonfish","DiBattista et al. 2011 Journal of Marine Biology 2011:839134","Pacific Ocean","Society Islands",-16.9158333333333,-148.865833333333,NA,"2007","cytb",32,797,0.98,0.012,0.0073,0.004
"36","Acanthurus nigroris","Pacific Blueline Surgeonfish","DiBattista et al. 2011 Journal of Marine Biology 2011:839134","USA","French Frigate Shoals",23.1177777777778,-165.982222222222,NA,"2007","cytb",33,797,0.42,0.1,0.00064,0.00062
"37","Acanthurus nigroris","Pacific Blueline Surgeonfish","DiBattista et al. 2011 Journal of Marine Biology 2011:839134","USA","Gardner Pinnacles",24.1525,-166.8475,NA,"2007","cytb",27,797,0.57,0.061,8e-04,0.00072
"38","Acanthurus nigroris","Pacific Blueline Surgeonfish","DiBattista et al. 2011 Journal of Marine Biology 2011:839134","USA","Hawaii, Big Island",19.085,-154.916666666667,NA,"2007","cytb",32,797,0.66,0.085,0.0012,0.00094
"39","Acanthurus nigroris","Pacific Blueline Surgeonfish","DiBattista et al. 2011 Journal of Marine Biology 2011:839134","USA","Johnston Atoll",16.1180555555556,-168.916388888889,NA,"2007","cytb",34,797,0.22,0.093,0.00037,0.00044
"40","Acanthurus nigroris","Pacific Blueline Surgeonfish","DiBattista et al. 2011 Journal of Marine Biology 2011:839134","USA","Kauai",22.0022222222222,-158.916666666667,NA,"2007","cytb",34,797,0.27,0.092,4e-04,0.00047
"41","Acanthurus nigroris","Pacific Blueline Surgeonfish","DiBattista et al. 2011 Journal of Marine Biology 2011:839134","USA","Kure Atoll",28.0669444444444,-177.949166666667,NA,"2007","cytb",41,797,0.31,0.093,0.00054,0.00056
"42","Acanthurus nigroris","Pacific Blueline Surgeonfish","DiBattista et al. 2011 Journal of Marine Biology 2011:839134","USA","Laysan Island",25.1183333333333,-170.8825,NA,"2007","cytb",46,797,0.58,0.069,0.00086,0.00074
"43","Acanthurus nigroris","Pacific Blueline Surgeonfish","DiBattista et al. 2011 Journal of Marine Biology 2011:839134","USA","Lisianski Island",26.0016666666667,-172.848333333333,NA,"2007","cytb",39,797,0.58,0.082,0.001,0.00083
"44","Acanthurus nigroris","Pacific Blueline Surgeonfish","DiBattista et al. 2011 Journal of Marine Biology 2011:839134","USA","Maro Reef",25.0669444444444,-169.914166666667,NA,"2007","cytb",35,797,0.62,0.064,0.00095,8e-04
"45","Acanthurus nigroris","Pacific Blueline Surgeonfish","DiBattista et al. 2011 Journal of Marine Biology 2011:839134","USA","Midway Island",28.0333333333333,-176.948611111111,NA,"2007","cytb",30,797,0.58,0.08,0.00097,0.00081
"46","Acanthurus nigroris","Pacific Blueline Surgeonfish","DiBattista et al. 2011 Journal of Marine Biology 2011:839134","USA","Nihoa",23.0016666666667,-160.849444444444,NA,"2007","cytb",32,797,0.63,0.091,0.00086,0.00075
"47","Acanthurus nigroris","Pacific Blueline Surgeonfish","DiBattista et al. 2011 Journal of Marine Biology 2011:839134","USA","Oahu",21.0683333333333,-156.847777777778,NA,"2007","cytb",29,797,0.54,0.093,0.00082,0.00073
"48","Acanthurus nigroris","Pacific Blueline Surgeonfish","DiBattista et al. 2011 Journal of Marine Biology 2011:839134","USA","Pearl & Hermes Reef",27.1333333333333,-174.865277777778,NA,"2007","cytb",29,797,0.64,0.057,0.00096,0.00081
"49","Amblyraja radiata","Starry ray","Chevolot et al. 2007 Mar Biol 151:1275-1286","Eastern Atlantic","Central North Sea",56.13,4.81,NA,"2003","cytb",11,290,0.473,NA,0.0018,NA
"50","Amblyraja radiata","Starry ray","Chevolot et al. 2007 Mar Biol 151:1275-1286","Eastern Atlantic","Kattegat",57.5,10.35,NA,"2003","cytb",22,290,0.789,NA,0.006,NA
"51","Amblyraja radiata","Starry ray","Chevolot et al. 2007 Mar Biol 151:1275-1286","Eastern Atlantic","Off Haugesund",59.37,2.92,NA,"2003","cytb",15,290,0.771,NA,0.0039,NA
"52","Amblyraja radiata","Starry ray","Chevolot et al. 2007 Mar Biol 151:1275-1286","Iceland","Eyjafjordur",66.16,-18.43,NA,"2004","cytb",19,290,0.784,NA,0.0038,NA
"53","Amblyraja radiata","Starry ray","Chevolot et al. 2007 Mar Biol 151:1275-1286","Iceland","Hunafloi",65.57,-21.08,NA,"2004","cytb",27,290,0.738,NA,0.0047,NA
"54","Amblyraja radiata","Starry ray","Chevolot et al. 2007 Mar Biol 151:1275-1286","Iceland","Isafjardarjup",66.28,-23.2,NA,"2003","cytb",17,290,0.75,NA,0.003,NA
"55","Amblyraja radiata","Starry ray","Chevolot et al. 2007 Mar Biol 151:1275-1286","Iceland","Off bistlfjordur",66.91,-13.48,NA,"2003","cytb",24,290,0.916,NA,0.0071,NA
"56","Amblyraja radiata","Starry ray","Chevolot et al. 2007 Mar Biol 151:1275-1286","Iceland","Off Bjargtangar 1",65.74,-27.4,NA,"2003","cytb",32,290,0.802,NA,0.055,NA
"57","Amblyraja radiata","Starry ray","Chevolot et al. 2007 Mar Biol 151:1275-1286","Iceland","Off Bjargtangar 2",65.67,-27.56,NA,"2003","cytb",22,290,0.749,NA,0.006,NA
"58","Amblyraja radiata","Starry ray","Chevolot et al. 2007 Mar Biol 151:1275-1286","Iceland","Off Hofn",63.91,-12.53,NA,"2003","cytb",17,290,0.806,NA,0.0036,NA
"59","Amblyraja radiata","Starry ray","Chevolot et al. 2007 Mar Biol 151:1275-1286","Iceland","Oxafjordur",66.28,-16.28,NA,"2004","cytb",20,290,0.916,NA,0.0071,NA
"60","Amblyraja radiata","Starry ray","Chevolot et al. 2007 Mar Biol 151:1275-1286","Iceland","Skagafjordur",65.94,-16.79,NA,"2004","cytb",19,290,0.784,NA,0.0058,NA
"61","Amblyraja radiata","Starry ray","Chevolot et al. 2007 Mar Biol 151:1275-1286","Iceland","Skjalfandi",66.14,-17.54,NA,"2004","cytb",25,290,0.743,NA,0.0056,NA
"62","Amblyraja radiata","Starry ray","Chevolot et al. 2007 Mar Biol 151:1275-1286","Newfoundland","Newfoundland",46.07,-47.37,NA,"2004","cytb",30,290,0.834,NA,0.007,NA
"63","Ammodytes personatus","Pacific sandlance ","Kim Park Kim 2006","South Korea","Jumunjin, East Sea",37.979,128.8893,NA,"2005","control region",24,750,1,NA,0.0255,NA
"64","Ammodytes personatus","Pacific sandlance ","Kim Park Kim 2006","South Korea","Sangju, South Sea",34.814,128.285453,NA,"2005","control region",25,750,0.99,NA,0.0097,NA
"65","Ammodytes personatus","Pacific sandlance ","Kim Park Kim 2006","South Korea","Taean, West Sea",36.756,125.995612,NA,"2005","control region",24,750,1,NA,0.0099,NA
"66","Amphiprion melanopus","Fire clownfish","Drew et. al 2008 Conservation Biology 22(4):965-975","Fiji","Central Fiji",-17.3,178.9,NA,"","control region",36,384,NA,NA,0.02,0.001666667
"67","Amphiprion melanopus","Fire clownfish","Drew et. al 2008 Conservation Biology 22(4):965-975","Papua New Guinea","Milne Bay",-9.02,149.15,NA,"","control region",26,384,NA,NA,0.021,0.001961161
"68","Amphiprion melanopus","Fire clownfish","Drew et. al 2008 Conservation Biology 22(4):965-975","Solomon Islands","Nudha Islands",-9.5,160.8,NA,"","control region",11,384,NA,NA,0.02,0.003015113
"69","Anoplopoma fimbria","Sablefish","Tripp-Valdez et. al 2012 Journal of Applied Ichthyology 28:516-523","Mexico","SQ",30.4416666666667,-115.569166666667,NA,"","COI",15,353,0.371,0.03950443,0.0015,0.000180739
"70","Anoplopoma fimbria","Sablefish","Tripp-Valdez et. al 2012 Journal of Applied Ichthyology 28:516-523","USA","BS",56.0846111111111,-172.965241666667,"SABLEFEBSAIGA","","COI",15,353,0.467,0.038213436,0.00146,0.000136845
"71","Anoplopoma fimbria","Sablefish","Tripp-Valdez et. al 2012 Journal of Applied Ichthyology 28:516-523","USA","GA",54.0359444444444,-133.999816666667,"SABLEFEBSAIGA","","COI",14,353,0.758,0.031002304,0.0027,0.000160357
"72","Anoplopoma fimbria","Sablefish","Tripp-Valdez et. al 2012 Journal of Applied Ichthyology 28:516-523","USA","OR",45.8355555555556,-123.198333333333,"SABLEFPCOAST","","COI",13,353,0.5,0.037719613,0.0015,0.00011094
"73","Auxis thazard","Frigate tuna ","Kumar et al. 2012 Marine Biology Research 8:992-1002","India ","Kavaratti",10.34,72.37,NA,"2008","D-loop",50,500,1,NA,0.026,NA
"74","Auxis thazard","Frigate tuna ","Kumar et al. 2012 Marine Biology Research 8:992-1002","India ","Kochi",9.58,76.16,NA,"2008","D-loop",50,500,1,NA,0.056,NA
"75","Auxis thazard","Frigate tuna ","Kumar et al. 2012 Marine Biology Research 8:992-1002","India ","Pondicherry",11.56,79.5,NA,"2008","D-loop",50,500,1,NA,0.04,NA
"76","Auxis thazard","Frigate tuna ","Kumar et al. 2012 Marine Biology Research 8:992-1002","India ","Port-Blair",11.4,92.46,NA,"2009","D-loop",14,500,0.989,NA,0.091,NA
"77","Auxis thazard","Frigate tuna ","Kumar et al. 2012 Marine Biology Research 8:992-1002","India ","Ratnagiri",16.59,73.18,NA,"2008","D-loop",50,500,0.9992,NA,0.043,NA
"78","Auxis thazard","Frigate tuna ","Kumar et al. 2012 Marine Biology Research 8:992-1002","India ","Tuticorin",8.49,78.08,NA,"2009","D-loop",50,500,1,NA,0.027,NA
"79","Auxis thazard","Frigate tuna ","Kumar et al. 2012 Marine Biology Research 8:992-1002","India ","Veravel",20.54,70.22,NA,"2007","D-loop",50,500,0.9992,NA,0.031,NA
"80","Auxis thazard","Frigate tuna ","Kumar et al. 2012 Marine Biology Research 8:992-1002","India ","Vizag",17.42,86.15,NA,"2009","D-loop",50,500,0.9984,NA,0.034,NA
"81","Balistes capriscus","Gray triggerfish","Antoni et al. 2011 North American Journal of Fisheries 31:714-721","USA","Louisiana",27,-91,"GTRIGGM","2008.5","ND4",29,617,0.81505,NA,0.00345,NA
"82","Balistes capriscus","Gray triggerfish","Antoni et al. 2011 North American Journal of Fisheries 31:714-721","USA","South Carolina",33.0833333333333,-79,NA,"2008.5","ND4",29,617,0.88736,NA,0.00393,NA
"83","Balistes capriscus","Gray triggerfish","Antoni et al. 2011 North American Journal of Fisheries 31:714-721","USA","South Texas",26.0188888888889,-96.9988888888889,"GTRIGGM","2008.5","ND4",29,617,0.89195,NA,0.00451,NA
"84","Balistes capriscus","Gray triggerfish","Antoni et al. 2011 North American Journal of Fisheries 31:714-721","USA","South-eastern Florida",26.0833333333333,-80,NA,"2008.5","ND4",29,617,0.90726,NA,0.00403,NA
"85","Balistes capriscus","Gray triggerfish","Antoni et al. 2011 North American Journal of Fisheries 31:714-721","USA","West Florida",30.150349,-86.485161,"GTRIGGM","2008.5","ND4",29,617,0.87957,NA,0.003386,NA
"86","Bathygobius cocosensis","Reef goby ","Muki et al. 2009 Ichythology Res 56:380-387","Northwestern Pacific Ocean ","Bonin Islands ",25,145,NA,"","ND5",22,945,0.636,NA,0.001,NA
"87","Bathygobius cocosensis","Reef goby ","Muki et al. 2009 Ichythology Res 56:380-387","Northwestern Pacific Ocean ","Iriomote-jima",24,124,NA,"","ND5",12,945,0.955,NA,0.003,NA
"88","Bathygobius cocosensis","Reef goby ","Muki et al. 2009 Ichythology Res 56:380-387","Northwestern Pacific Ocean ","Okinawa-jima",26,126,NA,"","ND5",10,945,0.644,NA,0.001,NA
"89","Bathygobius cocosensis","Reef goby ","Muki et al. 2009 Ichythology Res 56:380-387","Northwestern Pacific Ocean ","Wakayama",35,136,NA,"","ND5",16,945,0.908,NA,0.002,NA
"90","Bellapiscis lesleyae","Mottled twister","Hickey et. al 2009 Molecular Ecology 18:680-697","New Zealand","Bluff",-45.4166666666667,168.333333333333,NA,"","control region",12,400,0.591,0.108,0.003,0.002
"91","Bellapiscis lesleyae","Mottled twister","Hickey et. al 2009 Molecular Ecology 18:680-697","New Zealand","Hauraki Gulf",-34.1,175.083333333333,NA,"","control region",4,400,1,0.177,0.013,0.009
"92","Bellapiscis lesleyae","Mottled twister","Hickey et. al 2009 Molecular Ecology 18:680-697","New Zealand","Kaikoura",-41.6,173.7,NA,"","control region",14,400,1,0.034,0.013,0.008
"93","Bellapiscis lesleyae","Mottled twister","Hickey et. al 2009 Molecular Ecology 18:680-697","New Zealand","Three Kings",-33.8666666666667,172.133333333333,NA,"","control region",12,400,0.758,0.093,0.005,0.003
"94","Bellapiscis medius","Twister","Hickey et. al 2009 Molecular Ecology 18:680-697","New Zealand","Bluff",-45.4166666666667,168.333333333333,NA,"","control region",24,400,0.486,0.113,0.002,0.002
"95","Bellapiscis medius","Twister","Hickey et. al 2009 Molecular Ecology 18:680-697","New Zealand","Catlins",-45.6333333333333,169.783333333333,NA,"","control region",21,400,0.095,0.084,3e-04,0.001
"96","Bellapiscis medius","Twister","Hickey et. al 2009 Molecular Ecology 18:680-697","New Zealand","Hauraki Gulf",-34.1,175.083333333333,NA,"","control region",14,400,0.901,0.058,0.006,0.004
"97","Bellapiscis medius","Twister","Hickey et. al 2009 Molecular Ecology 18:680-697","New Zealand","Kaikoura",-41.6,173.7,NA,"","control region",8,400,0.649,0.184,0.004,0.003
"98","Bellapiscis medius","Twister","Hickey et. al 2009 Molecular Ecology 18:680-697","New Zealand","Kaipara",-35.75,174.233333333333,NA,"","control region",14,400,0.818,0.084,0.005,0.003
"99","Bellapiscis medius","Twister","Hickey et. al 2009 Molecular Ecology 18:680-697","New Zealand","Otago",-44.1833333333333,170.65,NA,"","control region",16,400,0.264,0.136,0.001,0.001
"100","Bellapiscis medius","Twister","Hickey et. al 2009 Molecular Ecology 18:680-697","New Zealand","Wellington",-40.9166666666667,174.85,NA,"","control region",19,400,0.836,0.139,0.003,0.002
"101","Beryx decadactylus","Alfonsino ","Friess & Sedberry 2011 Journal of Fish Biology 78:466-478","United States","Charleston Bump ",32.0936,-75.9942,NA,"2005","control region",141,403,0.799,NA,0.0041,NA
"102","Beryx splendens","Splendid alfonsino","Levy-Hartmann et al. 2011 Genetica 139: 1349-1365","New Caledonia","Astrolabe Reef,  North Loyality ridge",-20,165.3,NA,"","cytb",12,815,0.8485,NA,0.003458,NA
"103","Beryx splendens","Splendid alfonsino","Levy-Hartmann et al. 2011 Genetica 139: 1349-1365","New Caledonia","Atlantic Ocean",58.539595,-19.541019,NA,"","cytb",25,815,0.9833,NA,0.009669,NA
"104","Beryx splendens","Splendid alfonsino","Levy-Hartmann et al. 2011 Genetica 139: 1349-1365","New Caledonia","Chatham Rise",-46.316584,178.886712,NA,"","cytb",13,815,0.9744,NA,0.003492,NA
"105","Beryx splendens","Splendid alfonsino","Levy-Hartmann et al. 2011 Genetica 139: 1349-1365","New Caledonia","East Coast",-40.044438,-179.150394,NA,"","cytb",25,815,0.88,NA,0.004266,NA
"106","Beryx splendens","Splendid alfonsino","Levy-Hartmann et al. 2011 Genetica 139: 1349-1365","New Caledonia","Indian Ocean (east)",-20.468189,111.943356,NA,"","cytb",10,815,0.9778,NA,0.005235,NA
"107","Beryx splendens","Splendid alfonsino","Levy-Hartmann et al. 2011 Genetica 139: 1349-1365","New Caledonia","Indian Ocean (west)",-27.839076,49.892575,NA,"","cytb",9,815,0.9167,NA,0.00259,NA
"108","Beryx splendens","Splendid alfonsino","Levy-Hartmann et al. 2011 Genetica 139: 1349-1365","New Caledonia","Lifou Island, North Loyality ridge",-21,167,NA,"","cytb",10,815,0.9333,NA,0.004908,NA
"109","Beryx splendens","Splendid alfonsino","Levy-Hartmann et al. 2011 Genetica 139: 1349-1365","New Caledonia","Off Japanese Coast",45.828799,146.894524,NA,"","cytb",27,815,0.886,NA,0.003489,NA
"110","Beryx splendens","Splendid alfonsino","Levy-Hartmann et al. 2011 Genetica 139: 1349-1365","New Caledonia","Off Tasmania, South Australia",-45.336702,144.462887,NA,"","cytb",5,815,1,NA,0.007853,NA
"111","Beryx splendens","Splendid alfonsino","Levy-Hartmann et al. 2011 Genetica 139: 1349-1365","New Caledonia","Seamount J, South Loyality ridge",-24.1,170,NA,"","cytb",21,815,0.9524,NA,0.003728,NA
"112","Beryx splendens","Splendid alfonsino","Levy-Hartmann et al. 2011 Genetica 139: 1349-1365","New Caledonia","Seamount Jumeau Est, Norfolk ridge",-23.6,168.5,NA,"","cytb",14,815,0.8901,NA,0.003182,NA
"113","Beryx splendens","Splendid alfonsino","Levy-Hartmann et al. 2011 Genetica 139: 1349-1365","New Caledonia","Seamount Jumeau Ouest, Norfolk ridge",-23.9,167.5,NA,"","cytb",10,815,0.7778,NA,0.001963,NA
"114","Beryx splendens","Splendid alfonsino","Levy-Hartmann et al. 2011 Genetica 139: 1349-1365","New Caledonia","Seamount K, South Loyality ridge",-24.5,170.1,NA,"","cytb",13,815,0.8718,NA,0.003146,NA
"115","Beryx splendens","Splendid alfonsino","Levy-Hartmann et al. 2011 Genetica 139: 1349-1365","New Caledonia","Seamount Stylaster, Norfolk ridge",-23.5,168,NA,"","cytb",10,815,0.9333,NA,0.002372,NA
"116","Boreogadus saida","Polar cod","Palsson et. al 2009 Polar Biology 32:471-479","Bering strait","19",70,-175,NA,"2002","cytb",5,260,0.7,0.22,0.0031,0.0031
"117","Boreogadus saida","Polar cod","Palsson et. al 2009 Polar Biology 32:471-479","Greenland","1",71.48,-56.58,NA,"2004","cytb",32,260,0.44,0.11,0.0031,0.0026
"118","Boreogadus saida","Polar cod","Palsson et. al 2009 Polar Biology 32:471-479","Greenland","10",74.9,-21.01,NA,"2003","cytb",17,260,0.32,0.14,0.0013,0.0015
"119","Boreogadus saida","Polar cod","Palsson et. al 2009 Polar Biology 32:471-479","Greenland","11",75.58,-21.44,NA,"2003","cytb",20,260,0.45,0.14,0.0027,0.0023
"120","Boreogadus saida","Polar cod","Palsson et. al 2009 Polar Biology 32:471-479","Greenland","12",76.43,-19.19,NA,"2003","cytb",17,260,0.67,0.09,0.0054,0.0039
"121","Boreogadus saida","Polar cod","Palsson et. al 2009 Polar Biology 32:471-479","Greenland","14",73.04,-16.31,NA,"2003","cytb",19,260,0.45,0.13,0.0041,0.0032
"122","Boreogadus saida","Polar cod","Palsson et. al 2009 Polar Biology 32:471-479","Greenland","15",75.24,-11.45,NA,"2003","cytb",17,260,0.23,0.13,0.0018,0.0018
"123","Boreogadus saida","Polar cod","Palsson et. al 2009 Polar Biology 32:471-479","Greenland","16",76.59,-6.25,NA,"2002","cytb",39,260,0.39,0.09,0.0041,0.0031
"124","Boreogadus saida","Polar cod","Palsson et. al 2009 Polar Biology 32:471-479","Greenland","17",79.01,10.43,NA,"2002","cytb",41,260,0.23,0.08,0.002,0.0019
"125","Boreogadus saida","Polar cod","Palsson et. al 2009 Polar Biology 32:471-479","Greenland","2",67.22,-57.07,NA,"2004","cytb",41,260,0.34,0.09,0.0023,0.0026
"126","Boreogadus saida","Polar cod","Palsson et. al 2009 Polar Biology 32:471-479","Greenland","3",65.04,-34.31,NA,"2005","cytb",22,260,0.4,0.12,0.0037,0.0029
"127","Boreogadus saida","Polar cod","Palsson et. al 2009 Polar Biology 32:471-479","Greenland","8",74.04,-22,NA,"2003","cytb",16,260,0.69,0.12,0.0041,0.0032
"128","Boreogadus saida","Polar cod","Palsson et. al 2009 Polar Biology 32:471-479","Greenland","9",74.27,-21.11,NA,"2003","cytb",15,260,0.36,0.14,0.0032,0.0027
"129","Boreogadus saida","Polar cod","Palsson et. al 2009 Polar Biology 32:471-479","Iceland","4",66.75,-24.5,NA,"2002","cytb",20,260,0.57,0.12,0.0051,0.0037
"130","Boreogadus saida","Polar cod","Palsson et. al 2009 Polar Biology 32:471-479","Iceland","5",67.25,-19.5,NA,"2002","cytb",20,260,0.35,0.12,0.0034,0.0027
"131","Boreogadus saida","Polar cod","Palsson et. al 2009 Polar Biology 32:471-479","Iceland","6",66,-12,NA,"2002","cytb",17,260,0.41,0.14,0.0032,0.0027
"132","Boreogadus saida","Polar cod","Palsson et. al 2009 Polar Biology 32:471-479","Iceland","7",64.5,-12,NA,"2002","cytb",40,260,0.54,0.08,0.0047,0.0034
"133","Boreogadus saida","Polar cod","Palsson et. al 2009 Polar Biology 32:471-479","Spitsbergen","18",60,-175,NA,"2002","cytb",19,260,0.3,0.13,0.0023,0.0022
"134","Branchiostegus japonicus","red tilefish","Nohara et. al 2010 Fish Science 76:75-81","East China Sea","EC",28.69,124.5,NA,"2003","control region",35,388,0.928,0.005747049,0.08,0.000845154
"135","Branchiostegus japonicus","red tilefish","Nohara et. al 2010 Fish Science 76:75-81","Japan","KC",33.1,134.2,NA,"2003","control region",35,388,0.966,0.003380617,0.01,0.000845154
"136","Branchiostegus japonicus","red tilefish","Nohara et. al 2010 Fish Science 76:75-81","Japan","KT",35.97,135.12,NA,"2003","control region",35,388,0.916,0.005747049,0.01,0.001014185
"137","Branchiostegus japonicus","red tilefish","Nohara et. al 2010 Fish Science 76:75-81","Japan","NG",37.6,138.5,NA,"2003","control region",35,388,0.832,0.010141851,0.006,0.000507093
"138","Branchiostegus japonicus","red tilefish","Nohara et. al 2010 Fish Science 76:75-81","Japan","SN",36.11,132.7,NA,"2003","control region",35,388,0.961,0.003549648,0.01,0.001014185
"139","Branchiostegus japonicus","red tilefish","Nohara et. al 2010 Fish Science 76:75-81","Japan","SO",34.5,138.8,NA,"2003","control region",35,388,0.983,0.001859339,0.01,0.001014185
"140","Branchiostegus japonicus","red tilefish","Nohara et. al 2010 Fish Science 76:75-81","Japan","TS",34.4,129.6,NA,"2003","control region",35,388,0.879,0.008451543,0.006,0.000676123
"141","Branchiostegus japonicus","red tilefish","Nohara et. al 2010 Fish Science 76:75-81","Japan","YG",34.8,131.2,NA,"2003","control region",35,388,0.923,0.005239956,0.007,0.000676123
"142","Caffrogobius caffer","","Neethling et. al 2008 BMC Evolutionary Biology 8:325","South Africa","Cape Agulhas",-34.8,19.9,NA,"","control region",26,390,0.963,NA,0.01,NA
"143","Caffrogobius caffer","","Neethling et. al 2008 BMC Evolutionary Biology 8:325","South Africa","Cape Infanta",-34.6,20.3,NA,"","control region",26,390,0.969,NA,0.01,NA
"144","Caffrogobius caffer","","Neethling et. al 2008 BMC Evolutionary Biology 8:325","South Africa","Gansbaai",-34.5,19.3,NA,"","control region",25,390,0.967,NA,0.01,NA
"145","Caffrogobius caffer","","Neethling et. al 2008 BMC Evolutionary Biology 8:325","South Africa","Haga Haga",-33.3,27.4,NA,"","control region",21,390,0.971,NA,0.01,NA
"146","Caffrogobius caffer","","Neethling et. al 2008 BMC Evolutionary Biology 8:325","South Africa","Herold's Bay",-34.4,21.8,NA,"","control region",26,390,0.951,NA,0.009,NA
"147","Caffrogobius caffer","","Neethling et. al 2008 BMC Evolutionary Biology 8:325","South Africa","Jongensfontein",-34.4,20.8,NA,"","control region",26,390,0.96,NA,0.009,NA
"148","Caffrogobius caffer","","Neethling et. al 2008 BMC Evolutionary Biology 8:325","South Africa","Knysna Heads",-34.07,22.5,NA,"","control region",24,390,0.982,NA,0.011,NA
"149","Caffrogobius caffer","","Neethling et. al 2008 BMC Evolutionary Biology 8:325","South Africa","Port Alfred",-33.7,26.5,NA,"","control region",24,390,0.935,NA,0.009,NA
"150","Caffrogobius caffer","","Neethling et. al 2008 BMC Evolutionary Biology 8:325","South Africa","Rooiels",-34.4,18.8,NA,"","control region",22,390,0.965,NA,0.011,NA
"151","Caffrogobius caffer","","Neethling et. al 2008 BMC Evolutionary Biology 8:325","South Africa","Wooley's Pool",-34.1,18.6,NA,"","control region",22,390,0.948,NA,0.008,NA
"152","Carcharodon carcharias","Australian White Shark","Blower et al. 2012 Marine Ecology Progress Series 455: 229-244","Australia","New South Wales",32.0183333333333,147.000555555556,NA,"1997","control region",38,842,0.838,0.025,0.00289,0.00178
"153","Carcharodon carcharias","Australian White Shark","Blower et al. 2012 Marine Ecology Progress Series 455: 229-244","Australia","Queensland",23,143,NA,"1997","control region",13,842,0.885,0.058,0.0029,0.00189
"154","Carcharodon carcharias","Australian White Shark","Blower et al. 2012 Marine Ecology Progress Series 455: 229-244","Australia","South Australia",30,135,NA,"1997","control region",28,842,0.833,0.051,0.00285,0.00178
"155","Centrophorus harrissoni","Deep-sea gulper shark","Daley et al. 2012 Marine and Freshwater Research 63:708-714","Australia","North-eastern Tasmania",-40,149,NA,"2007","16S",23,486,NA,NA,0.071,0.04
"156","Centrophorus moluccensis","Deep-sea gulper shark","Daley et al. 2012 Marine and Freshwater Research 63:708-714","Australia","Western Australia",-32,115,NA,"2007","16S",5,503,NA,NA,0.001,0.001
"157","Centrophorus zeehaani","Deep-sea gulper shark","Daley et al. 2012 Marine and Freshwater Research 63:708-714","Australia","Victoria",-39.9166666666667,148.118055555556,NA,"2007","16S",18,505,NA,NA,0.004,0.002
"158","Centropristis striata","Black seabass","Roy et. al 2012 Marine and Coastal Fisheries: Dynamics, Management, and Ecosystem Service 4:391-402","USA","CT",41.1,-72.8,"BSBASSMATLC","","control region",13,342,0.641,0.041602515,0.002,0.0005547
"159","Centropristis striata","Black seabass","Roy et. al 2012 Marine and Coastal Fisheries: Dynamics, Management, and Ecosystem Service 4:391-402","USA","FL",27.7,-80.4,NA,"","control region",53,342,0.861,0.005494423,0.007,0.000686803
"160","Centropristis striata","Black seabass","Roy et. al 2012 Marine and Coastal Fisheries: Dynamics, Management, and Ecosystem Service 4:391-402","USA","GA",31.6,-80.7,NA,"","control region",40,342,0.887,0.006798897,0.008,0.000790569
"161","Centropristis striata","Black seabass","Roy et. al 2012 Marine and Coastal Fisheries: Dynamics, Management, and Ecosystem Service 4:391-402","USA","GoM",29.5,-84.7,NA,"","control region",57,342,0.999,0.000529813,0.015,0.001059626
"162","Centropristis striata","Black seabass","Roy et. al 2012 Marine and Coastal Fisheries: Dynamics, Management, and Ecosystem Service 4:391-402","USA","NC",34.3,-77.4,NA,"","control region",56,342,0.87,0.005077964,0.006,0.000534522
"163","Centropristis striata","Black seabass","Roy et. al 2012 Marine and Coastal Fisheries: Dynamics, Management, and Ecosystem Service 4:391-402","USA","NJ",39.5,-73.8,"BSBASSMATLC","","control region",28,342,0.442,0.021921939,0.003,0.000377964
"164","Centropristis striata","Black seabass","Roy et. al 2012 Marine and Coastal Fisheries: Dynamics, Management, and Ecosystem Service 4:391-402","USA","OI",35.8,-75.4,"BSBASSMATLC","","control region",8,342,0.25,0.06363961,0.001,0.000353553
"165","Centropristis striata","Black seabass","Roy et. al 2012 Marine and Coastal Fisheries: Dynamics, Management, and Ecosystem Service 4:391-402","USA","SC32",32.3,-79.7,NA,"","control region",39,342,0.815,0.009767817,0.006,0.000640513
"166","Centropristis striata","Black seabass","Roy et. al 2012 Marine and Coastal Fisheries: Dynamics, Management, and Ecosystem Service 4:391-402","USA","SC33",33.3,-78.7,NA,"","control region",40,342,0.846,0.008063808,0.005,0.000474342
"167","Centropristis striata","Black seabass","Roy et. al 2012 Marine and Coastal Fisheries: Dynamics, Management, and Ecosystem Service 4:391-402","USA","VA",36.9,-75.5,"BSBASSMATLC","","control region",30,342,0.361,0.019900586,0.002,0.000365148
"168","Centroscymnus crepidater","Trans-Oceanic Deep-Sea Shark","Cunha et al. 2012 PLoS ONE 7:e49196","Atlantic Ocean","Mid-Atlantic Ridge",43,-27,NA,"","control region",20,NA,0.984,0.021,0.013,0.007
"169","Centroscymnus crepidater","Trans-Oceanic Deep-Sea Shark","Cunha et al. 2012 PLoS ONE 7:e49196","New Zealand","Chatham Rise",-45,167,NA,"","control region",5,NA,0.9,0.161,0.014,0.017
"170","Centroscymnus crepidater","Trans-Oceanic Deep-Sea Shark","Cunha et al. 2012 PLoS ONE 7:e49196","Portugal","Azores",37.0833333333333,-29,NA,"","control region",23,NA,0.885,0.048,0.018,0.009
"171","Centroscymnus crepidater","Trans-Oceanic Deep-Sea Shark","Cunha et al. 2012 PLoS ONE 7:e49196","Portugal","Madeira",33,-18,NA,"","control region",5,NA,0.9,0.161,0.003,0.002
"172","Centroscymnus crepidater","Trans-Oceanic Deep-Sea Shark","Cunha et al. 2012 PLoS ONE 7:e49196","South Pacific Ocean","Tasman Sea",-44,150,NA,"","control region",21,NA,0.624,0.121,0.002,0.001
"173","Centroscymnus crepidater","Trans-Oceanic Deep-Sea Shark","Cunha et al. 2012 PLoS ONE 7:e49196","United Kingdom","Rockall Trough",55.0833333333333,-16,NA,"","control region",15,NA,0.933,0.045,0.009,0.005
"174","Cephalopholis argus","Peacock hind ","Gaither et al. 2011 BMC Evolutionary Biology 11:1-16","Australia ","Christmas Island ",-10.4954,105.6947,NA,"","cytb",49,729,0.83,0.02,0.006,0.004
"175","Cephalopholis argus","Peacock hind ","Gaither et al. 2011 BMC Evolutionary Biology 11:1-16","Australia ","Cocos/Keeling ",-12.1363,96.7984,NA,"","cytb",40,729,0.87,0.02,0.006,0.004
"176","Cephalopholis argus","Peacock hind ","Gaither et al. 2011 BMC Evolutionary Biology 11:1-16","Australia ","Lizard Island ",-14.6643,145.4474,NA,"","cytb",12,729,0.67,0.14,0.001,0.001
"177","Cephalopholis argus","Peacock hind ","Gaither et al. 2011 BMC Evolutionary Biology 11:1-16","Australia ","Rowley Shoals ",-17.3701,119.1637,NA,"","cytb",40,729,0.81,0.04,0.005,0.003
"178","Cephalopholis argus","Peacock hind ","Gaither et al. 2011 BMC Evolutionary Biology 11:1-16","Australia ","Scott Reef ",-14.0268,121.9596,NA,"","cytb",42,729,0.73,0.05,0.004,0.002
"179","Cephalopholis argus","Peacock hind ","Gaither et al. 2011 BMC Evolutionary Biology 11:1-16","Federated States of Micronesia ","Pohnpei ",6.9247,158.346,NA,"","cytb",15,729,0.74,0.09,0.004,0.002
"180","Cephalopholis argus","Peacock hind ","Gaither et al. 2011 BMC Evolutionary Biology 11:1-16","French Polynesia ","Marquesas ",-9.7945,-138.7697,NA,"","cytb",50,729,0.65,0.06,0.002,0.001
"181","Cephalopholis argus","Peacock hind ","Gaither et al. 2011 BMC Evolutionary Biology 11:1-16","French Polynesia ","Moorea ",-17.5197,-149.7481,NA,"","cytb",36,729,0.38,0.1,0.001,0.001
"182","Cephalopholis argus","Peacock hind ","Gaither et al. 2011 BMC Evolutionary Biology 11:1-16","New Zealand ","Somoa/Tokelau ",-9.1568,-171.7664,NA,"","cytb",27,729,0.64,0.07,0.001,0.001
"183","Cephalopholis argus","Peacock hind ","Gaither et al. 2011 BMC Evolutionary Biology 11:1-16","Oman ","Oman ",20.4765,59.4271,NA,"","cytb",9,729,0.81,0.12,0.006,0.003
"184","Cephalopholis argus","Peacock hind ","Gaither et al. 2011 BMC Evolutionary Biology 11:1-16","Republic of Indonesia ","Bali ",-7.9813,115.3964,NA,"","cytb",23,729,0.81,0.05,0.005,0.003
"185","Cephalopholis argus","Peacock hind ","Gaither et al. 2011 BMC Evolutionary Biology 11:1-16","Republic of Indonesia ","Sumatra",6.035,94.6193,NA,"","cytb",4,729,0.83,0.22,0.007,0.005
"186","Cephalopholis argus","Peacock hind ","Gaither et al. 2011 BMC Evolutionary Biology 11:1-16","Republic of Kiribati ","Kiritimati ",1.8735,-157.2652,NA,"","cytb",32,729,0.74,0.005,0.003,0.002
"187","Cephalopholis argus","Peacock hind ","Gaither et al. 2011 BMC Evolutionary Biology 11:1-16","Republic of Palau ","Palau ",7.4294,134.6824,NA,"","cytb",22,729,0.77,0.07,0.004,0.002
"188","Cephalopholis argus","Peacock hind ","Gaither et al. 2011 BMC Evolutionary Biology 11:1-16","Republic of Seychelles ","Seychelles ",-4.5421,55.4296,NA,"","cytb",13,729,0.96,0.04,0.003,0.002
"189","Cephalopholis argus","Peacock hind ","Gaither et al. 2011 BMC Evolutionary Biology 11:1-16","Republic of the Marshall Islands ","Kwajalein ",9.2597,167.6182,NA,"","cytb",22,729,0.86,0.05,0.005,0.003
"190","Cephalopholis argus","Peacock hind ","Gaither et al. 2011 BMC Evolutionary Biology 11:1-16","Republic of the Philippines ","Phillipines ",12.3222,118.2987,NA,"","cytb",6,729,0.87,0.13,0.009,0.006
"191","Cephalopholis argus","Peacock hind ","Gaither et al. 2011 BMC Evolutionary Biology 11:1-16","United Kingdom (British Indian Ocean Territory)  ","Diego Garcia ",-7.3262,72.5026,NA,"","cytb",33,729,0.87,0.03,0.003,0.002
"192","Cephalopholis argus","Peacock hind ","Gaither et al. 2011 BMC Evolutionary Biology 11:1-16","United States","Baker/Howland ",0.479,-176.5281,NA,"","cytb",27,729,0.68,0.06,0.002,0.001
"193","Cephalopholis argus","Peacock hind ","Gaither et al. 2011 BMC Evolutionary Biology 11:1-16","United States","Palmyra ",5.9023,-162.0788,NA,"","cytb",29,729,0.65,0.07,0.002,0.002
"194","Cephalopholis argus","Peacock hind ","Gaither et al. 2011 BMC Evolutionary Biology 11:1-16","United States","Saipan ",15.1608,145.8097,NA,"","cytb",19,729,0.77,0.07,0.003,0.002
"195","Cephalopholis argus","Peacock hind ","Gaither et al. 2012 Proceedings of the Royal Society B 279:3948-3957","United States","French Frigate Shoals ",23.7384,-166.1398,NA,"","cytb",4,615,0.5,0.27,0.001,0.001
"196","Cephalopholis argus","Peacock hind ","Gaither et al. 2012 Proceedings of the Royal Society B 279:3948-3957","United States","Hawai'i Island ",19.5803,-156.0226,NA,"","cytb",51,615,0.52,0.07,0.001,0.001
"197","Cephalopholis argus","Peacock hind ","Gaither et al. 2012 Proceedings of the Royal Society B 279:3948-3957","United States","Kaua'i ",21.8872,-159.681,NA,"","cytb",53,615,0.59,0.05,0.001,0.001
"198","Cephalopholis argus","Peacock hind ","Gaither et al. 2012 Proceedings of the Royal Society B 279:3948-3957","United States","Maui",20.5068,-156.45,NA,"","cytb",53,615,0.55,0.04,0.001,0.001
"199","Cephalopholis argus","Peacock hind ","Gaither et al. 2012 Proceedings of the Royal Society B 279:3948-3957","United States","Necker ",23.5766,-164.6977,NA,"","cytb",9,615,0.56,0.17,0.001,0.001
"200","Cephalopholis argus","Peacock hind ","Gaither et al. 2012 Proceedings of the Royal Society B 279:3948-3957","United States","Nihoa",23.0563,-161.9168,NA,"","cytb",13,615,0.56,0.11,0.001,0.001
"201","Cephalopholis argus","Peacock hind ","Gaither et al. 2012 Proceedings of the Royal Society B 279:3948-3957","United States","O'ahu",21.4925,-158.3121,NA,"","cytb",53,615,0.61,0.05,0.001,0.001
"202","Cetengraulis edentulus","Atlantic anchoveta ","Grant et al. 2010 Journal of Biogeography 37:1352-1362","Trinidad and Tobago ","Western Atlantic ",10.8283,-61.4356,NA,"","cytb",25,521,0.853,NA,NA,NA
"203","Chaetodon meyeri","Scrawled butterflyfish","DiBattista et al. 2012 Journal of Heredity 103:617-629","Indian Ocean","Christmas Island",-9.93111111111111,105.100833333333,NA,"2008","cytb",31,731,0.81,0.07,0.0023,0.0015
"204","Chaetodon meyeri","Scrawled butterflyfish","DiBattista et al. 2012 Journal of Heredity 103:617-629","Indian Ocean","Cocos-Keeling Islands",-11.9830555555556,96.15,NA,"2008","cytb",24,731,0.9,0.05,0.0029,0.0018
"205","Chaetodon meyeri","Scrawled butterflyfish","DiBattista et al. 2012 Journal of Heredity 103:617-629","Indian Ocean","Diego Garcia",-6.94972222222222,72.0669444444444,NA,"2008","cytb",36,731,0.6,0.01,0.0016,0.0012
"206","Chaetodon meyeri","Scrawled butterflyfish","DiBattista et al. 2012 Journal of Heredity 103:617-629","Indian Ocean","Republic of Kiribati",1.06833333333333,173.000833333333,NA,"2008","cytb",30,731,0.9,0.03,0.003,0.0019
"207","Chaetodon meyeri","Scrawled butterflyfish","DiBattista et al. 2012 Journal of Heredity 103:617-629","Indian Ocean","Republic of Palau",7.05138888888889,134.068333333333,NA,"2008","cytb",7,731,0.29,0.2,0.0012,0.0011
"208","Chaetodon meyeri","Scrawled butterflyfish","DiBattista et al. 2012 Journal of Heredity 103:617-629","Indian Ocean","Republic of Seychelles",-3.89972222222222,55.0680555555556,NA,"2008","cytb",6,731,0.93,0.12,0.0022,0.0017
"209","Chaetodon ornatissimus","Ornate butterflyfish","DiBattista et al. 2012 Journal of Heredity 103:617-629","French Polynesia","Moorea",-16.9158333333333,149.134166666667,NA,"2008","cytb",33,731,0.89,0.04,0.0036,0.0022
"210","Chaetodon ornatissimus","Ornate butterflyfish","DiBattista et al. 2012 Journal of Heredity 103:617-629","Indian Ocean","Christmas Island",-9.93111111111111,105.100833333333,NA,"2008","cytb",32,731,0.9,0.03,0.005,0.0029
"211","Chaetodon ornatissimus","Ornate butterflyfish","DiBattista et al. 2012 Journal of Heredity 103:617-629","Indian Ocean","Cocos-Keeling Islands",-11.9830555555556,96.15,NA,"2008","cytb",32,731,0.83,0.05,0.0045,0.0027
"212","Chaetodon ornatissimus","Ornate butterflyfish","DiBattista et al. 2012 Journal of Heredity 103:617-629","Indian Ocean","Republic of Kiribati",1.06833333333333,173.000833333333,NA,"2008","cytb",50,731,0.75,0.06,0.0033,0.002
"213","Chaetodon ornatissimus","Ornate butterflyfish","DiBattista et al. 2012 Journal of Heredity 103:617-629","Marquesas","Nuku Hiva",-7.865,-139.9825,NA,"2008","cytb",37,731,0.82,0.05,0.0033,0.002
"214","Chaetodon ornatissimus","Ornate butterflyfish","DiBattista et al. 2012 Journal of Heredity 103:617-629","Pacific Ocean","Palmyra Atoll",5.13555555555556,-161.997777777778,NA,"2008","cytb",14,731,0.89,0.06,0.0043,0.0026
"215","Chaetodon ornatissimus","Ornate butterflyfish","DiBattista et al. 2012 Journal of Heredity 103:617-629","Western Pacific Ocean","Republic of Palau",7.05138888888889,134.068333333333,NA,"2008","cytb",37,731,0.86,0.05,0.0041,0.0025
"216","Chromis multilineata","Brown chromis ","Rocha et. al 2008 BMC Evolutionary Biology 8:157","Ascension","Ascension",-8,-14,NA,"","cytb",19,802,0.98,0.02,0.007,0.004
"217","Chromis multilineata","Brown chromis ","Rocha et. al 2008 BMC Evolutionary Biology 8:157","Brazil","Cabo Frio",-23,-42,NA,"","cytb",14,802,0.99,0.02,0.007,0.004
"218","Chromis multilineata","Brown chromis ","Rocha et. al 2008 BMC Evolutionary Biology 8:157","Brazil","Paraiba",-7.05,-34.4,NA,"","cytb",11,802,1,0.06,0.007,0.004
"219","Chromis multilineata","Brown chromis ","Rocha et. al 2008 BMC Evolutionary Biology 8:157","Brazil","St. Paul's Rocks",1,-29,NA,"","cytb",17,802,0.92,0.04,0.006,0.003
"220","Chromis multilineata","Brown chromis ","Rocha et. al 2008 BMC Evolutionary Biology 8:157","British Overseas Territory","St. Helena",-16,-5,NA,"","cytb",20,802,0.99,0.02,0.007,0.004
"221","Chromis multilineata","Brown chromis ","Rocha et. al 2008 BMC Evolutionary Biology 8:157","Cape Verde","Cape Verde",16,-22,NA,"","cytb",24,802,0.92,0.03,0.003,0.002
"222","Chromis multilineata","Brown chromis ","Rocha et. al 2008 BMC Evolutionary Biology 8:157","Grenada","Grenada",12,-61,NA,"","cytb",16,802,0.97,0.03,0.009,0.005
"223","Chromis multilineata","Brown chromis ","Rocha et. al 2008 BMC Evolutionary Biology 8:157","Panama","Panama",10,-80,NA,"","cytb",19,802,1,0.02,0.008,0.005
"224","Chromis multilineata","Brown chromis ","Rocha et. al 2008 BMC Evolutionary Biology 8:157","Sao Tome and Principe ","Sao Tome",0.56,6.5,NA,"","cytb",18,802,0.81,0.09,0.002,0.001
"225","Chromis multilineata","Brown chromis ","Rocha et. al 2008 BMC Evolutionary Biology 8:157","U.S. Virgin Islands","St. Croix (USVI)",17,-64,NA,"","cytb",25,802,0.99,0.01,0.008,0.004
"226","Chrysiptera talboti","Talbot's demoiselle","Drew et. al 2008 Conservation Biology 22(4):965-975","Fiji","Central Fiji",-17.3,178.9,NA,"","control region",37,384,NA,NA,0.007,0.000328798
"227","Chrysiptera talboti","Talbot's demoiselle","Drew et. al 2008 Conservation Biology 22(4):965-975","Indonesia","Teluk Cenderawasih",-1.05,134.7,NA,"","control region",8,384,NA,NA,0.02,0.002474874
"228","Chrysiptera talboti","Talbot's demoiselle","Drew et. al 2008 Conservation Biology 22(4):965-975","Papau New Guinea","Milne Bay",-9.02,149.15,NA,"","control region",26,384,NA,NA,0.01,0.000784465
"229","Chrysiptera talboti","Talbot's demoiselle","Drew et. al 2008 Conservation Biology 22(4):965-975","Solomon Islands","Boneagi",-9.5,160.8,NA,"","control region",11,384,NA,NA,0.002,0.001206045
"230","Chrysoblephus laticeps","Roman seabream","Teske et. al 2010 Marine Biology 157:2029-2042","South Africa","Alphard Banks",-34.9666666666667,20.8666666666667,NA,"","control region ",9,549,1,0.016666667,0.006,0.001333333
"231","Chrysoblephus laticeps","Roman seabream","Teske et. al 2010 Marine Biology 157:2029-2042","South Africa","Bird Island MPA",33.8333333333333,26.3,NA,"","control region ",21,549,1,0.004364358,0.006,0.000872872
"232","Chrysoblephus laticeps","Roman seabream","Teske et. al 2010 Marine Biology 157:2029-2042","South Africa","False Bay",-33.8975,18.9758333333333,NA,"","control region ",27,549,1,0.001924501,0.007,0.0007698
"233","Chrysoblephus laticeps","Roman seabream","Teske et. al 2010 Marine Biology 157:2029-2042","South Africa","Plettenberg Bay",-33.98,23.8222222222222,NA,"","control region ",17,549,1,0.004850713,0.011,0.001455214
"234","Chrysoblephus laticeps","Roman seabream","Teske et. al 2010 Marine Biology 157:2029-2042","South Africa","Port Alfred",33.6041666666667,26.9033333333333,NA,"","control region ",20,549,1,0.004472136,0.013,0.001565248
"235","Chrysoblephus laticeps","Roman seabream","Teske et. al 2010 Marine Biology 157:2029-2042","South Africa","Struis Bay",-33.2038888888889,20.0719444444444,NA,"","control region ",16,549,1,0.005,0.005,0.00075
"236","Chrysoblephus laticeps","Roman seabream","Teske et. al 2010 Marine Biology 157:2029-2042","South Africa","Tsitsikamma NP",-33.9622222222222,23.9272222222222,NA,"","control region ",33,549,1,0.001740777,0.008,0.000696311
"237","Cirrhilabrus punctatus","Dotted wrasse","Drew et. al 2008 Conservation Biology 22(4):965-975","Fiji","Central Fiji",-17.3,178.9,NA,"","control region",29,384,NA,NA,0.02,0.001856953
"238","Cirrhilabrus punctatus","Dotted wrasse","Drew et. al 2008 Conservation Biology 22(4):965-975","Papau New Guinea","Milne Bay",-9.02,149.15,NA,"","control region",9,384,NA,NA,0.006,0.003333333
"239","Cleisthenes herzensteini","Point-headed flounder","Xiao et. al 2011 Genetics 139:187-198","China","Qingdao",36.05,120.433333333333,NA,"2009","control region",13,421,0.99,0.009707253,0.012,0.001941451
"240","Cleisthenes herzensteini","Point-headed flounder","Xiao et. al 2011 Genetics 139:187-198","China","Rushan",36.55,121.733333333333,NA,"2009","control region",8,421,0.96,0.027577164,0.009,0.00212132
"241","Cleisthenes herzensteini","Point-headed flounder","Xiao et. al 2011 Genetics 139:187-198","East China Sea","East of China Sea",36,121,NA,"2009","control region",21,421,0.97,0.006546537,0.011,0.001309307
"242","Cleisthenes herzensteini","Point-headed flounder","Xiao et. al 2011 Genetics 139:187-198","Japan","Dosei",44.6166666666667,140.366666666667,NA,"2007","control region",17,421,0.99,0.005578319,0.014,0.001940285
"243","Cleisthenes herzensteini","Point-headed flounder","Xiao et. al 2011 Genetics 139:187-198","Japan","Doto",42.6333333333333,143.816666666667,NA,"2008","control region",28,421,0.99,0.002645751,0.013,0.001511858
"244","Cleisthenes herzensteini","Point-headed flounder","Xiao et. al 2011 Genetics 139:187-198","Japan","Monbetu",44.6,143.566666666667,NA,"2007","control region",28,421,0.99,0.002267787,0.017,0.00170084
"245","Cleisthenes herzensteini","Point-headed flounder","Xiao et. al 2011 Genetics 139:187-198","Japan","Sea of Japan",44.6166666666667,140.366666666667,NA,"2007","control region",17,421,0.99,0.000557832,0.014,0.001940285
"246","Cleisthenes herzensteini","Point-headed flounder","Xiao et. al 2011 Genetics 139:187-198","Japan","Sea of Okhotsk",44,143,NA,"2007","control region",28,421,0.99,0.002267787,0.017,0.00170084
"247","Cleisthenes herzensteini","Point-headed flounder","Xiao et. al 2011 Genetics 139:187-198","Japan","Tohoku",39.4,142.7,NA,"2008","control region",27,421,0.98,0.003849002,0.017,0.001732051
"248","Clupea pallasii","Pacific herring ","Grant et al. 2012 Molecular Phylogenetics and Evolution 65:203-212","Canada ","Strait of Georgia, NE Pacific ",49.3473,-123.8583,NA,"2009","control region",24,463,0.978,0.004286607,0.0214,0.002306603
"249","Clupea pallasii","Pacific herring ","Grant et al. 2012 Molecular Phylogenetics and Evolution 65:203-212","China ","Rongcheng, Yellow Sea ",36.7417,122.758,NA,"2003","control region",39,463,0.908,0.003843076,0.0098,0.000880705
"250","Clupea pallasii","Pacific herring ","Grant et al. 2012 Molecular Phylogenetics and Evolution 65:203-212","Japan","Ishikari Bay, Sea of Japan ",43.3115,141.1668,NA,"2005","control region",24,463,0.935,0.005103104,0.011,0.001245157
"251","Clupea pallasii","Pacific herring ","Grant et al. 2012 Molecular Phylogenetics and Evolution 65:203-212","Japan","North of Hokkaido, Okhotsk Sea ",42.8522,144.0288,NA,"2004","control region",26,463,0.945,0.004706787,0.0111,0.00121592
"252","Clupea pallasii","Pacific herring ","Grant et al. 2012 Molecular Phylogenetics and Evolution 65:203-212","Japan","Shimane, Sea of Japan ",35.6807,133.5373,NA,"2007","control region",24,463,0.975,0.003878359,0.0117,0.001326807
"253","Clupea pallasii","Pacific herring ","Grant et al. 2012 Molecular Phylogenetics and Evolution 65:203-212","Russia ","Akkeshi, East of Hokkaido",46.6355,143.6351,NA,"2005","control region",36,463,0.975,0.002333333,0.0124,0.001116667
"254","Clupea pallasii","Pacific herring ","Grant et al. 2012 Molecular Phylogenetics and Evolution 65:203-212","Russia ","West Kamchatka, Okhotsk Sea ",52.8966,155.43,NA,"2007","control region",29,463,0.948,0.005199469,0.0113,0.001169881
"255","Clupea pallasii","Pacific herring ","Grant et al. 2012 Molecular Phylogenetics and Evolution 65:203-212","United States","Coastal Washington, NE Pacific ",47.7511,-124.6,NA,"2005","control region",84,463,0.98,0.000872872,0.0238,0.001320218
"256","Clupea pallasii","Pacific herring ","Grant et al. 2012 Molecular Phylogenetics and Evolution 65:203-212","United States","Sitka, Gulf of Alaska ",56.8881,-135.8982,NA,"2007","control region",26,463,0.963,0.005295136,0.0235,0.002412228
"257","Clupea pallasii","Pacific herring ","Grant et al. 2012 Molecular Phylogenetics and Evolution 65:203-212","United States","Togiak, Bering Sea ",58.6739,-160.0814,NA,"2007","control region",30,463,0.894,0.006755245,0.0125,0.001241504
"258","Conger conger","Conger eel","Correia et al. 2006. Fisheries Science. 72: 20-27","Portugal","Azores",38,-29,NA,"1999","control region",10,432,0.978,NA,0.007,NA
"259","Conger conger","Conger eel","Correia et al. 2006. Fisheries Science. 72: 20-27","Portugal","North Portuguese Continental Slope",41,-9,NA,"1989","control region",8,432,1,NA,0.01,NA
"260","Conger conger","European conger eel","Correia et al. 2012 Marine Biology 159:1509-1525","Azores","Azores",36,-20,NA,"2007","control region",92,607,0.95,0.02,0.45,0.27
"261","Conger conger","European conger eel","Correia et al. 2012 Marine Biology 159:1509-1525","Ireland","Ireland",56.4333333333333,-8.43333333333333,NA,"2008","control region",54,607,0.97,0.02,0.5,0.3
"262","Conger conger","European conger eel","Correia et al. 2012 Marine Biology 159:1509-1525","Portugal","Madeira",32.7833333333333,-15.2666666666667,NA,"2007","control region",60,607,0.89,0.04,0.38,0.23
"263","Conger conger","European conger eel","Correia et al. 2012 Marine Biology 159:1509-1525","Portugal","North Portugal",41.1833333333333,-7.03333333333333,NA,"2007","control region",60,607,0.96,0.03,0.43,0.26
"264","Conger conger","European conger eel","Correia et al. 2012 Marine Biology 159:1509-1525","Portugal","South Portugal",36.9166666666667,9.25,NA,"2006","control region",26,607,0.92,0.03,0.4,0.25
"265","Conger conger","European conger eel","Correia et al. 2012 Marine Biology 159:1509-1525","Spain","Mallorca",39.25,-1.66666666666667,NA,"2007","control region",55,607,0.74,0.06,0.21,0.15
"266","Cynoscion nebulosus","Spotted weakfish","Anderson and Karel 2009 Marine and Coastal Fisheries: Dynamics, Management, and Ecosystem Science 1:121-132","USA","AB",28,-96.9,NA,"2003-2005","control region",42,373,0.89,NA,0.006,NA
"267","Cynoscion nebulosus","Spotted weakfish","Anderson and Karel 2009 Marine and Coastal Fisheries: Dynamics, Management, and Ecosystem Science 1:121-132","USA","CC",27.7,-97.2,NA,"2003-2005","control region",42,373,0.89,NA,0.007,NA
"268","Cynoscion nebulosus","Spotted weakfish","Anderson and Karel 2009 Marine and Coastal Fisheries: Dynamics, Management, and Ecosystem Science 1:121-132","USA","EM",28.69,-95.8,NA,"2003-2005","control region",28,373,0.92,NA,0.007,NA
"269","Cynoscion nebulosus","Spotted weakfish","Anderson and Karel 2009 Marine and Coastal Fisheries: Dynamics, Management, and Ecosystem Science 1:121-132","USA","LL",26.3,-97.27,NA,"2003-2005","control region",27,373,0.89,NA,0.007,NA
"270","Cynoscion nebulosus","Spotted weakfish","Anderson and Karel 2009 Marine and Coastal Fisheries: Dynamics, Management, and Ecosystem Science 1:121-132","USA","MB",28.4,-96.35,NA,"2003-2005","control region",27,373,0.94,NA,0.007,NA
"271","Cynoscion nebulosus","Spotted weakfish","Anderson and Karel 2009 Marine and Coastal Fisheries: Dynamics, Management, and Ecosystem Science 1:121-132","USA","SB",28.27,-96.7,NA,"2003-2005","control region",40,373,0.9,NA,0.007,NA
"272","Cynoscion nebulosus","Spotted weakfish","Anderson and Karel 2009 Marine and Coastal Fisheries: Dynamics, Management, and Ecosystem Science 1:121-132","USA","SL",29.8,-93.8,NA,"2003-2005","control region",44,373,0.75,NA,0.005,NA
"273","Cynoscion nebulosus","Spotted weakfish","Anderson and Karel 2009 Marine and Coastal Fisheries: Dynamics, Management, and Ecosystem Science 1:121-132","USA","UL",27.25,-97.4,NA,"2003-2005","control region",30,373,0.87,NA,0.006,NA
"274","Dasyatis brevicaudata","Short-Tailed Stingray","Le Port and Lavery. 2012 Journal of Heredity 103(2):174-185","Australia","Victoria",-39.368279,145.488274,NA,"2005","control region",6,1928,0.93,NA,0.19,NA
"275","Dasyatis brevicaudata","Short-Tailed Stingray","Le Port and Lavery. 2012 Journal of Heredity 103(2):174-185","Australia","Western Australia",-26.115986,112.924803,NA,"2005","control region",6,1928,1,NA,0.11,NA
"276","Dasyatis brevicaudata","Short-Tailed Stingray","Le Port and Lavery. 2012 Journal of Heredity 103(2):174-185","New Zealeand","Bay of Plenty",-37.75281,177.025493,NA,"2005","control region",7,1928,0.73,NA,0.06,NA
"277","Dasyatis brevicaudata","Short-Tailed Stingray","Le Port and Lavery. 2012 Journal of Heredity 103(2):174-185","New Zealeand","Hauraki Gulf",-36.704133,174.844017,NA,"2005","control region",16,1928,0.73,NA,0.06,NA
"278","Dasyatis brevicaudata","Short-Tailed Stingray","Le Port and Lavery. 2012 Journal of Heredity 103(2):174-185","New Zealeand","Mokohinau",-35.91092,175.113613,NA,"2005","control region",13,1928,0.73,NA,0.06,NA
"279","Dasyatis brevicaudata","Short-Tailed Stingray","Le Port and Lavery. 2012 Journal of Heredity 103(2):174-185","New Zealeand","Poor Knights Island",-35.47236,174.748347,NA,"2005","control region",93,1928,0.73,NA,0.06,NA
"280","Dasyatis brevicaudata","Short-Tailed Stingray","Le Port and Lavery. 2012 Journal of Heredity 103(2):174-185","New Zealeand","Spirits Bay",-34.438165,172.812345,NA,"2005","control region",5,1928,0.73,NA,0.06,NA
"281","Dasyatis brevicaudata","Short-Tailed Stingray","Le Port and Lavery. 2012 Journal of Heredity 103(2):174-185","New Zealeand","West Coast",-37.020046,174.699386,NA,"2005","control region",9,1928,0.73,NA,0.06,NA
"282","Dasyatis brevicaudata","Short-Tailed Stingray","Le Port and Lavery. 2012 Journal of Heredity 103(2):174-185","South Africa","Western Cape",-34.225429,22.157593,NA,"2005","control region",9,1928,0.03,NA,0.09,NA
"283","Diaphus theta","California headlightfish","Kojima et. al 2009 Journal of Oceanography 65:187-193","Pacific Ocean","E3",51.8,-144.5,NA,"","cytb",17,621,0.93,0.009701425,0.00426,0.000649995
"284","Diaphus theta","California headlightfish","Kojima et. al 2009 Journal of Oceanography 65:187-193","Pacific Ocean","W2",42.79,146.9,NA,"","cytb",20,621,0.95,0.062609903,0.00497,0.000673056
"285","Diaphus theta","California headlightfish","Kojima et. al 2009 Journal of Oceanography 65:187-193","Pacific Ocean","W4",49.5,173.9,NA,"","cytb",20,621,0.83,0.015652476,0.0032,0.00047181
"286","Dicentrarchus labrax","Common Sea Bass","Lemair et al. 2005 Journal of Evolutionary Biology 18:70-80","Algeria","Gulf of Annaba",36.0844444444444,7.06805555555556,NA,"","cytb",51,304,0.04,NA,5e-04,NA
"287","Dicentrarchus labrax","Common Sea Bass","Lemair et al. 2005 Journal of Evolutionary Biology 18:70-80","Atlantic/Alboran Basin","Alboran Sea",36,-3,NA,"","cytb",9,304,0.69,NA,0.01,NA
"288","Dicentrarchus labrax","Common Sea Bass","Lemair et al. 2005 Journal of Evolutionary Biology 18:70-80","Belgium","Antwerpen",51.0336111111111,4.06666666666667,NA,"","cytb",41,304,0.14,NA,0.002,NA
"289","Dicentrarchus labrax","Common Sea Bass","Lemair et al. 2005 Journal of Evolutionary Biology 18:70-80","France","Etang-du-Prvost",43.0352777777778,3.06861111111111,NA,"","cytb",20,304,0.1,NA,4e-04,NA
"290","Dicentrarchus labrax","Common Sea Bass","Lemair et al. 2005 Journal of Evolutionary Biology 18:70-80","France","Marseille",43.0358333333333,5.05194444444444,NA,"","cytb",60,304,0.1,NA,4e-04,NA
"291","Dicentrarchus labrax","Common Sea Bass","Lemair et al. 2005 Journal of Evolutionary Biology 18:70-80","France","Saint-Brieuc",48.0836111111111,-1.88166666666667,NA,"","cytb",38,304,0.36,NA,0.004,NA
"292","Dicentrarchus labrax","Common Sea Bass","Lemair et al. 2005 Journal of Evolutionary Biology 18:70-80","Gulf of Biscay","Yeu Island",46.1172222222222,-1.94888888888889,NA,"","cytb",22,304,0.4,NA,0.005,NA
"293","Dicentrarchus labrax","Common Sea Bass","Lemair et al. 2005 Journal of Evolutionary Biology 18:70-80","Gulf of Tunis","La-Goulette",36.0688888888889,10.0333333333333,NA,"","cytb",27,304,0.07,NA,3e-04,NA
"294","Dicentrarchus labrax","Common Sea Bass","Lemair et al. 2005 Journal of Evolutionary Biology 18:70-80","Mediterranean basin","Mar Menor",37.1183333333333,0.134166666666667,NA,"","cytb",32,304,0.06,NA,2e-04,NA
"295","Dicentrarchus labrax","Common Sea Bass","Lemair et al. 2005 Journal of Evolutionary Biology 18:70-80","Morocco","Martil",35.1002777777778,-4.965,NA,"","cytb",14,304,0.53,NA,0.007,NA
"296","Dicentrarchus labrax","Common Sea Bass","Lemair et al. 2005 Journal of Evolutionary Biology 18:70-80","Morocco","Rabat",34.0005555555556,-5.86555555555556,NA,"","cytb",35,304,0.44,NA,0.005,NA
"297","Dicentrarchus labrax","Common Sea Bass","Lemair et al. 2005 Journal of Evolutionary Biology 18:70-80","Portugal","Aveiro",40.1008333333333,-7.89861111111111,NA,"","cytb",48,304,0.37,NA,0.005,NA
"298","Dicentrarchus labrax","Common Sea Bass","Lemair et al. 2005 Journal of Evolutionary Biology 18:70-80","Siculo-Tunisian Strait","Bizerte lagoon",37.035,9.135,NA,"","cytb",29,304,0.31,NA,3e-04,NA
"299","Dicentrarchus labrax","Common Sea Bass","Lemair et al. 2005 Journal of Evolutionary Biology 18:70-80","Siculo-Tunisian Strait","Ichkeul lake",37.0183333333333,9.10166666666667,NA,"","cytb",38,304,0.15,NA,6e-04,NA
"300","Dicentrarchus labrax","Common sea bass","Lemaire, Versini & Bonhomme 2005","Algeria","AGLA",36.844,7.06805555555556,NA,"1997-2002","cytb",51,304,0.04,NA,5e-04,NA
"301","Dicentrarchus labrax","Common sea bass","Lemaire, Versini & Bonhomme 2005","Belgium","BANV",51.083,4.06666666666667,NA,"1997-2002","cytb",41,304,0.14,NA,0.002,NA
"302","Dicentrarchus labrax","Common sea bass","Lemaire, Versini & Bonhomme 2005","France","FBRE",48.691,-1.88166666666667,NA,"1997-2002","cytb",38,304,0.36,NA,0.004,NA
"303","Dicentrarchus labrax","Common sea bass","Lemaire, Versini & Bonhomme 2005","France","FMRS",43.133,5.05194444444444,NA,"1997-2002","cytb",60,304,0.1,NA,4e-04,NA
"304","Dicentrarchus labrax","Common sea bass","Lemaire, Versini & Bonhomme 2005","France","FPRE",43.58,3.06861111111111,NA,"1997-2002","cytb",20,304,0.1,NA,4e-04,NA
"305","Dicentrarchus labrax","Common sea bass","Lemaire, Versini & Bonhomme 2005","France","FYEU",46.98,-1.94888888888889,NA,"1997-2002","cytb",22,304,0.4,NA,0.005,NA
"306","Dicentrarchus labrax","Common sea bass","Lemaire, Versini & Bonhomme 2005","Morocco","MMAR",35.282,-4.965,NA,"1997-2002","cytb",14,304,0.53,NA,0.007,NA
"307","Dicentrarchus labrax","Common sea bass","Lemaire, Versini & Bonhomme 2005","Morocco","MNAD",35.21,-3,NA,"1997-2002","cytb",9,304,0.69,NA,0.01,NA
"308","Dicentrarchus labrax","Common sea bass","Lemaire, Versini & Bonhomme 2005","Morocco","MRBT",33.431,-5.86555555555556,NA,"1997-2002","cytb",35,304,0.44,NA,0.005,NA
"309","Dicentrarchus labrax","Common sea bass","Lemaire, Versini & Bonhomme 2005","Portugal","PAVR",40.98,-7.89861111111111,NA,"1997-2002","cytb",48,304,0.37,NA,0.005,NA
"310","Dicentrarchus labrax","Common sea bass","Lemaire, Versini & Bonhomme 2005","Spain","EMAM",37.579,0.134166666666667,NA,"1997-2002","cytb",32,304,0.06,NA,2e-04,NA
"311","Dicentrarchus labrax","Common sea bass","Lemaire, Versini & Bonhomme 2005","Tunisia","TBIZ",37.23,9.135,NA,"1997-2002","cytb",29,304,0.31,NA,0.003,NA
"312","Dicentrarchus labrax","Common sea bass","Lemaire, Versini & Bonhomme 2005","Tunisia","TGOU",36.739,10.0333333333333,NA,"1997-2002","cytb",27,304,0.07,NA,3e-04,NA
"313","Dicentrarchus labrax","Common sea bass","Lemaire, Versini & Bonhomme 2005","Tunisia","TISK",37.16,9.10166666666667,NA,"1997-2002","cytb",38,304,0.15,NA,6e-04,NA
"314","Diplodus sargus","White seabream ","Kaoueche et al. 2013. African Journal of Marine Science","Mediterranian Sea","Bizerta",37.544577,9.686279,NA,"","cytb",19,671,0.578,NA,0.001,NA
"315","Diplodus sargus","White seabream ","Kaoueche et al. 2013. African Journal of Marine Science","Mediterranian Sea","El Biban Lagoon",34.052659,10.389404,NA,"","cytb",7,671,0.952,NA,0.0024,NA
"316","Diplodus sargus","White seabream ","Kaoueche et al. 2013. African Journal of Marine Science","Mediterranian Sea","Gabes Gulf",34.288992,10.323486,NA,"","cytb",7,671,0.857,NA,0.0017,NA
"317","Diplodus sargus","White seabream ","Kaoueche et al. 2013. African Journal of Marine Science","Mediterranian Sea","Ghar Melh Lagoon",36.949892,10.389404,NA,"","cytb",8,671,0.785,NA,0.0018,NA
"318","Diplodus sargus","White seabream ","Kaoueche et al. 2013. African Journal of Marine Science","Mediterranian Sea","Mahdia",35.675147,11.114502,NA,"","cytb",25,671,0.77,NA,0.0017,NA
"319","Diplodus sargus","White seabream ","Gonzalez-Wanguemert & Perez-Ruzafa 2012 Marine Ecology 33:337-349","France ","Banyuls",42.6,3.1758,NA,"2006.5","cytb",22,661,0.5513,NA,0.0021,NA
"320","Diplodus sargus","White seabream ","Gonzalez-Wanguemert & Perez-Ruzafa 2012 Marine Ecology 33:337-349","Portugal ","Quarteira ",37.0628,-8.1064,NA,"2006.5","cytb",25,661,0.5524,NA,9e-04,NA
"321","Diplodus sargus","White seabream ","Gonzalez-Wanguemert & Perez-Ruzafa 2012 Marine Ecology 33:337-349","Portugal ","Ria Formosa ",37.0276,-7.8183,NA,"2006.5","cytb",24,661,0.7572,NA,0.0045,NA
"322","Diplodus sargus","White seabream ","Gonzalez-Wanguemert & Perez-Ruzafa 2012 Marine Ecology 33:337-349","Spain ","Galicia ",43.2277,-9.218,NA,"2006.5","cytb",24,661,0.5507,NA,0.0011,NA
"323","Diplodus sargus","White seabream ","Gonzalez-Wanguemert & Perez-Ruzafa 2012 Marine Ecology 33:337-349","Spain ","Mar Menor ",37.6909,-0.8237,NA,"2006.5","cytb",22,661,0.8528,NA,0.0021,NA
"324","Diplodus sargus","White seabream ","Gonzalez-Wanguemert & Perez-Ruzafa 2012 Marine Ecology 33:337-349","Spain ","Murica ",37.6409,-0.6912,NA,"2006.5","cytb",25,661,0.5604,NA,0.0016,NA
"325","Diplodus sargus","White seabream ","Gonzalez-Wanguemert et al. 2011 Marine Biology Research 7:250-260","Italy ","Castellamare ",38.3275,12.5785,NA,"2004.5","control region",20,410,1,NA,0.0176,NA
"326","Diplodus sargus","White seabream ","Gonzalez-Wanguemert et al. 2011 Marine Biology Research 7:250-260","Portugal ","Azores ",37.8115,-24.1,NA,"2004.5","control region",20,410,0.9766,NA,0.023,NA
"327","Diplodus sargus","White seabream ","Gonzalez-Wanguemert et al. 2011 Marine Biology Research 7:250-260","Portugal ","Faro",37.0163,-8.2477,NA,"2004.5","control region",20,410,1,NA,0.0234,NA
"328","Diplodus sargus","White seabream ","Gonzalez-Wanguemert et al. 2011 Marine Biology Research 7:250-260","Spain ","Canary Islands ",28.9792,-15.0897,NA,"2004.5","control region",20,410,0.9872,NA,0.0247,NA
"329","Diplodus sargus","White seabream ","Gonzalez-Wanguemert et al. 2011 Marine Biology Research 7:250-260","Spain ","Mallorca ",39.1933,3.027,NA,"2004.5","control region",22,410,0.9926,NA,0.0218,NA
"330","Diplodus sargus","White seabream ","Gonzalez-Wanguemert et al. 2011 Marine Biology Research 7:250-260","Tunisia ","Tunisia ",37.2652,10.7308,NA,"2004.5","control region",22,410,1,NA,0.0271,NA
"331","Eleginops maclovinus","Patagonian blennie ","Ceballos et al. 2012 Marine Biology 159:499-505","Argentina ","Canal Beagle",-54.8134,-68.2944,NA,"","cytb",36,833,0.88,NA,0.0038,NA
"332","Eleginops maclovinus","Patagonian blennie ","Ceballos et al. 2012 Marine Biology 159:499-505","Argentina ","Puerto Madryn",-42.761,-65.0197,NA,"","cytb",27,833,0.96,NA,0.0054,NA
"333","Eleginops maclovinus","Patagonian blennie ","Ceballos et al. 2012 Marine Biology 159:499-505","Argentina ","Puerto San Julin",-49.3224,-67.7192,NA,"","cytb",24,833,0.86,NA,0.0035,NA
"334","Eleginops maclovinus","Patagonian blennie ","Ceballos et al. 2012 Marine Biology 159:499-505","Argentina ","Punta Mar_a ",-53.772,-67.683,NA,"","cytb",38,833,0.87,NA,0.0036,NA
"335","Eleginops maclovinus","Patagonian blennie ","Ceballos et al. 2012 Marine Biology 159:499-505","Argentina ","Rada Tilly",-42.7584,-65.0314,NA,"","cytb",25,833,0.89,NA,0.0026,NA
"336","Eleginops maclovinus","Patagonian blennie ","Ceballos et al. 2012 Marine Biology 159:499-505","Argentina ","San Antonio Oeste (SAO)",-40.7757,-64.9755,NA,"","cytb",25,833,0.9,NA,0.0047,NA
"337","Eleginops maclovinus","Patagonian blennie ","Ceballos et al. 2012 Marine Biology 159:499-505","Chile ","Concepci_n ",-36.7077,-73.0692,NA,"","cytb",27,833,0.9,NA,0.0032,NA
"338","Eleginops maclovinus","Patagonian blennie ","Ceballos et al. 2012 Marine Biology 159:499-505","Chile ","Puerto Aysn ",-45.4552,-74.6231,NA,"","cytb",31,833,0.91,NA,0.0042,NA
"339","Eleginops maclovinus","Patagonian blennie ","Ceballos et al. 2012 Marine Biology 159:499-505","Chile ","Puerto Montt",-41.5456,-72.9113,NA,"","cytb",28,833,0.87,NA,0.0039,NA
"340","Engraulis encrasicolus","European Anchovy","Borrell et al. 2012 ICES Journal of Marine Science 69:1357-1371","Bay of Biscay","East Cantabrian Sea (Basque Country)",44.2,-2.54,"ANCHOBAYB","2009","16S",19,503,0.7018,0.0805,0.005022,NA
"341","Engraulis encrasicolus","European Anchovy","Borrell et al. 2012 ICES Journal of Marine Science 69:1357-1371","Bay of Biscay","East Cantabrian Sea (Basque Country)",44.2,-2.54,"ANCHOBAYB","2009","cytb",17,524,0.9706,0.0323,0.0158,NA
"342","Engraulis encrasicolus","European Anchovy","Borrell et al. 2012 ICES Journal of Marine Science 69:1357-1371","Bay of Biscay","East Cantabrian Sea (Getaria Coast)",44,-2.6,"ANCHOBAYB","2009","16S",11,503,0.8727,0.0891,0.005639,NA
"343","Engraulis encrasicolus","European Anchovy","Borrell et al. 2012 ICES Journal of Marine Science 69:1357-1371","Bay of Biscay","East Cantabrian Sea (Getaria Coast)",44,-2.6,"ANCHOBAYB","2009","cytb",12,524,0.8485,0.012723,0.012723,NA
"344","Engraulis encrasicolus","European Anchovy","Borrell et al. 2012 ICES Journal of Marine Science 69:1357-1371","Bay of Biscay","West Cantabrian Sea",43.47,-4.01,"ANCHOBAYB","2009","16S",40,503,0.5308,0.0891,0.003747,NA
"345","Engraulis encrasicolus","European Anchovy","Borrell et al. 2012 ICES Journal of Marine Science 69:1357-1371","Bay of Biscay","West Cantabrian Sea",43.47,-4.01,"ANCHOBAYB","2009","cytb",39,524,0.726,0.0703,0.011935,NA
"346","Engraulis encrasicolus","European Anchovy","Borrell et al. 2012 ICES Journal of Marine Science 69:1357-1371","Bay of Biscay","West Cantabrian Sea (Valdearenas)",43.44,-3.97,"ANCHOBAYB","2009","cytb",20,524,0.9474,0.00344,0.016181,NA
"347","Engraulis encrasicolus","European Anchovy","Borrell et al. 2012 ICES Journal of Marine Science 69:1357-1371","Bay of Biscay","West Cantabrian Sea (Valdearenas)",43.44,-3.97,"ANCHOBAYB","2009","16S",20,503,0.7421,0.0705,0.005159,NA
"348","Engraulis encrasicolus","European Anchovy","Borrell et al. 2012 ICES Journal of Marine Science 69:1357-1371","France","North Nantes",47,-2.5,"ANCHOBAYB","2009","16S",31,503,0.7484,0.0577,0.005481,NA
"349","Engraulis encrasicolus","European Anchovy","Borrell et al. 2012 ICES Journal of Marine Science 69:1357-1371","France","North Nantes",47,-2.5,"ANCHOBAYB","2009","cytb",31,524,0.9484,0.0246,0.016383,NA
"350","Engraulis encrasicolus","European Anchovy","Borrell et al. 2012 ICES Journal of Marine Science 69:1357-1371","Mediterranean","The Adriatic Sea",43.03,16.13,NA,"2009","cytb",20,524,0.9842,0.0205,0.014132,NA
"351","Engraulis encrasicolus","European Anchovy","Borrell et al. 2012 ICES Journal of Marine Science 69:1357-1371","Mediterranean","The Adriatic Sea",43.03,16.13,NA,"2009","16S",20,503,0.7579,0.0811,0.004824,NA
"352","Engraulis encrasicolus","European anchovy","Keskin et al. 2012 Mitochondrial DNA 23(2):62-69","Atlantic Ocean","Aegean Sea",38.112959,26.142927,NA,"","cytochrome c oxidase subunit I",251,655,0.8422,NA,NA,NA
"353","Engraulis encrasicolus","European anchovy","Keskin et al. 2012 Mitochondrial DNA 23(2):62-69","Atlantic Ocean","Black Sea",41.289294,35.332304,NA,"","cytochrome c oxidase subunit I",384,655,0.8422,NA,NA,NA
"354","Engraulis encrasicolus","European anchovy","Keskin et al. 2012 Mitochondrial DNA 23(2):62-69","Atlantic Ocean","Marmara Sea",40.002102,26.062464,NA,"","cytochrome c oxidase subunit I",202,655,0.8422,NA,NA,NA
"355","Engraulis encrasicolus","European anchovy","Keskin et al. 2012 Mitochondrial DNA 23(2):62-69","Atlantic Ocean","Mediterranean Sea",36.100049,33.8202825,NA,"","cytochrome c oxidase subunit I",253,655,0.8422,NA,NA,NA
"356","Engraulis japonicus","Japanese anchovy","Chen et al. 2010 Zoological Studies 49: 270-282 ","Taiwan","Autumn Taiwan",24.1333333333333,121.133333333333,NA,"2001","cytb",45,740,0.999,NA,0.0144,NA
"357","Engraulis japonicus","Japanese anchovy","Chen et al. 2010 Zoological Studies 49: 270-282 ","Taiwan","Taiwan Strait",25.0333333333333,121.05,NA,"2001","cytb",44,740,1,NA,0.013,NA
"358","Engraulis japonicus","Japanese anchovy","Liu et al. 2006","China","East China Sea, E8-3",32.704289,125.695634,"JANCHOTSST","2001","control region",22,522,1,NA,0.011,NA
"359","Engraulis japonicus","Japanese anchovy","Liu et al. 2006","China","F4",30.486733,122.817216,NA,"2001","control region",20,522,0.99,NA,0.009,NA
"360","Engraulis japonicus","Japanese anchovy","Liu et al. 2006","China","J1",26.185208,120.323319,NA,"2001","control region",20,522,1,NA,0.01,NA
"361","Engraulis japonicus","Japanese anchovy","Liu et al. 2006","China","Yellow Sea, L3",36.421453,121.784501,NA,"2001","control region",17,522,1,NA,0.009,NA
"362","Engraulis japonicus","Japanese anchovy","Liu et al. 2006","China","Yellow Sea, PT4",35.71547,122.410722,NA,"2001","control region",16,522,1,NA,0.008,NA
"363","Engraulis japonicus","Japanese anchovy","Liu et al. 2006","Japan","Anamizu, Ishikawa",37.206434,137.18488,NA,"1997","control region",18,522,1,NA,0.01,NA
"364","Engraulis japonicus","Japanese anchovy","Liu et al. 2006","Japan","Kagoshima Bay",31.440283,130.635393,"JANCHOPJPN","1997","control region",18,522,1,NA,0.01,NA
"365","Engraulis japonicus","Japanese anchovy","Liu et al. 2006","Japan","Kosasa, Nagasaki",32.887852,129.43681,"JANCHOTSST","1996","control region",18,522,1,NA,0.01,NA
"366","Engraulis japonicus","Japanese anchovy","Liu et al. 2006","Japan","Miura Kanagawa",35.111632,139.653792,"JANCHOPJPN","1997","control region",18,522,1,NA,0.009,NA
"367","Engraulis japonicus","Japanese anchovy","Liu et al. 2006","Japan","Mugi, Tokushima",33.652868,134.45542,"JANCHOPJPN","1997","control region",18,522,1,NA,0.01,NA
"368","Engraulis japonicus","Japanese anchovy","Liu et al. 2006","Japan","Mutsu Bay",41.007148,141.106946,"JANCHOPJPN","1997","control region",18,522,1,NA,0.009,NA
"369","Engraulis japonicus","Japanese anchovy","Liu et al. 2006","Japan","Teuri Island",44.400754,141.315284,NA,"2005","control region",20,522,0.99,NA,0.01,NA
"370","Engraulis japonicus","Japanese anchovy","Liu et al. 2006","Japan","Utatsu, Miyagi",38.68513,141.589825,"JANCHOPJPN","1997","control region",18,522,1,NA,0.01,NA
"371","Engraulis japonicus","Japanese anchovy","Yu et al. 2005","China","Q1 - center-south of Yellow Sea",35.461,122.4,NA,"","cytb",15,420,0.962,NA,0.744,NA
"372","Engraulis japonicus","Japanese anchovy","Yu et al. 2005","China","Q1 - center-south of Yellow Sea",35.461,122.4,NA,"","cytochrome c oxidase subunit I",14,616,0.934,NA,0.519,NA
"373","Engraulis japonicus","Japanese anchovy","Yu et al. 2005","China","Q2 - northeast East China Sea",32.436,125,"JANCHOTSST","","cytb",16,420,0.95,NA,0.589,NA
"374","Engraulis japonicus","Japanese anchovy","Yu et al. 2005","China","Q2 - northeast East China Sea",32.436,125,"JANCHOTSST","","cytochrome c oxidase subunit I",15,616,0.981,NA,0.532,NA
"375","Engraulis japonicus","Japanese anchovy","Yu et al. 2005","China","Q3 - southwest East China Sea",26.549,121.5,NA,"","cytb",15,420,0.981,NA,0.603,NA
"376","Engraulis japonicus","Japanese anchovy","Yu et al. 2005","China","Q3 - southwest East China Sea",26.549,121.5,NA,"","cytochrome c oxidase subunit I",15,616,0.971,NA,0.832,NA
"377","Epinephelus akaara","Hong Kong grouper","Chen et. al 2008 African Journal of Biotechnology 7(20):3554-3562","China","DYW",22.06,114.3,NA,"2001","control region",5,331,0.9,0.071554175,0.007,0.002683282
"378","Epinephelus akaara","Hong Kong grouper","Chen et. al 2008 African Journal of Biotechnology 7(20):3554-3562","China","PT",25.9,119.8,NA,"2001","control region",15,331,0.89,0.018073922,0.008,0.001290994
"379","Epinephelus akaara","Hong Kong grouper","Chen et. al 2008 African Journal of Biotechnology 7(20):3554-3562","China","SY",17.6,108.96,NA,"1999","control region",14,331,1,0.008017837,0.012,0.001870829
"380","Epinephelus akaara","Hong Kong grouper","Chen et. al 2008 African Journal of Biotechnology 7(20):3554-3562","China","XM",24.3,118.5,NA,"2001","control region",10,331,0.98,0.015811388,0.017,0.003162278
"381","Epinephelus akaara","Hong Kong grouper","Chen et. al 2008 African Journal of Biotechnology 7(20):3554-3562","China","ZJ",20.86,111.03,NA,"2000","control region",15,331,0.93,0.012909944,0.01,0.001549193
"382","Epinephelus akaara","Hong Kong grouper","Chen et. al 2008 African Journal of Biotechnology 7(20):3554-3562","China","ZL",23.4,117.3,NA,"2001","control region",13,331,0.72,0.036055513,0.006,0.0011094
"383","Epinephelus akaara","Hong Kong grouper","Chen et. al 2008 African Journal of Biotechnology 7(20):3554-3562","China","ZS",29.8,122.4,NA,"1998","control region",15,331,0.94,0.010327956,0.011,0.001549193
"384","Epinephelus itajara","Atlantic goliath grouper","Craig et. al 2008 Endangered Species Research Preprint 1-8","Belize","Belize",16.1,-88.8,NA,"","16S",24,590,0.083,NA,1e-04,NA
"385","Epinephelus itajara","Atlantic goliath grouper","Craig et. al 2008 Endangered Species Research Preprint 1-8","Brazil","Brazil",-17.7,-39.2,NA,"","16S",20,590,0,NA,0,NA
"386","Epinephelus itajara","Atlantic goliath grouper","Craig et. al 2008 Endangered Species Research Preprint 1-8","Panama","Panama",8.98333333333333,-78.4833333333333,NA,"","16S",25,590,0.156,NA,5e-04,NA
"387","Epinephelus itajara","Atlantic goliath grouper","Craig et. al 2008 Endangered Species Research Preprint 1-8","USA","Florida",25.9166666666667,-80.3666666666667,NA,"","16S",30,590,0.303,NA,6e-04,NA
"388","Euthynnus affinis","Kawakawa","Kumar et al. 2012 Conservation Genetics 13:1119-1131","Indian Ocean","Kavaratti",10.34,72.37,NA,"2008","D-loop",50,500,0.9355,NA,NA,NA
"389","Euthynnus affinis","Kawakawa","Kumar et al. 2012 Conservation Genetics 13:1119-1131","Indian Ocean","Kochi",9.58,76.16,NA,"2008","D-loop",50,500,0.9061,NA,NA,NA
"390","Euthynnus affinis","Kawakawa","Kumar et al. 2012 Conservation Genetics 13:1119-1131","Indian Ocean","Pondicherry",11.56,79.5,NA,"2008","D-loop",50,500,0.951,NA,NA,NA
"391","Euthynnus affinis","Kawakawa","Kumar et al. 2012 Conservation Genetics 13:1119-1131","Indian Ocean","Port-Blair",11.4,92.46,NA,"2008","D-loop",50,500,0.9192,NA,NA,NA
"392","Euthynnus affinis","Kawakawa","Kumar et al. 2012 Conservation Genetics 13:1119-1131","Indian Ocean","Ratnagiri",16.59,73.18,NA,"2008","D-loop",50,500,0.8686,NA,NA,NA
"393","Euthynnus affinis","Kawakawa","Kumar et al. 2012 Conservation Genetics 13:1119-1131","Indian Ocean","Tuticorin",8.49,78.08,NA,"2009","D-loop",50,500,0.9722,NA,NA,NA
"394","Euthynnus affinis","Kawakawa","Kumar et al. 2012 Conservation Genetics 13:1119-1131","Indian Ocean","Verval",20.54,70.22,NA,"2007","D-loop",50,500,0.9167,NA,NA,NA
"395","Euthynnus affinis","Kawakawa","Kumar et al. 2012 Conservation Genetics 13:1119-1131","Indian Ocean","Vizag",17.42,83.15,NA,"2009","D-loop",50,500,0.9478,NA,NA,NA
"396","Euthynnus affinis","Kawakawa","Santos et. al Philippine Journal of Science 2010 139(1):43-50","Malaysia","PM",4.23,100.52,NA,"1999","control region",10,300,0.93,0.025298221,0.0517,NA
"397","Euthynnus affinis","Kawakawa","Santos et. al Philippine Journal of Science 2010 139(1):43-50","Phillipines","AC",18.4,121.6,NA,"1998","control region",7,300,0.67,0.060474316,0.0124,NA
"398","Euthynnus affinis","Kawakawa","Santos et. al Philippine Journal of Science 2010 139(1):43-50","Phillipines","DG",6.74,125.6,NA,"1997","control region",7,300,1,0.030237158,0.0419,NA
"399","Euthynnus affinis","Kawakawa","Santos et. al Philippine Journal of Science 2010 139(1):43-50","Phillipines","M",10.1,118.5,NA,"1997","control region",6,300,0.8,0.073484692,0.0213,NA
"400","Euthynnus affinis","Kawakawa","Santos et. al Philippine Journal of Science 2010 139(1):43-50","Phillipines","OC",8.55,124.6,NA,"1997","control region",8,300,0.89,0.038890873,0.0261,NA
"401","Euthynnus affinis","Kawakawa","Santos et. al Philippine Journal of Science 2010 139(1):43-50","Phillipines","TS",5.4,119.9,NA,"1997","control region",7,300,0.86,0.052915026,0.0214,NA
"402","Eviota albolineata","Spotted fringefin goby ","Farnsworth et al. 2010 Marine Biology 157:945-953 ","Australia ","Hicks Reef & Day Reef ",-14,145,NA,"","COI",41,392,0.92,NA,0.009,0.0052
"403","Eviota albolineata","Spotted fringefin goby ","Farnsworth et al. 2010 Marine Biology 157:945-953 ","Australia ","North Direction Island & Lizard Island ",-14,145,NA,"","COI",39,392,0.95,NA,0.0105,0.0059
"404","Eviota queenslandica","Queensland dwarfgoby ","Farnsworth et al. 2010 Marine Biology 157:945-953 ","Australia ","Martin Reef & Linnet Reef ",-14,145,NA,"","COI",13,408,0.91,NA,0.0101,0.0033
"405","Eviota queenslandica","Queensland dwarfgoby ","Farnsworth et al. 2010 Marine Biology 157:945-953 ","Australia ","North Direction Island & Lizard Island ",-14,145,NA,"","COI",21,408,0.76,NA,0.017,0.0043
"406","Fistularia commersonii","Bluespotted cornetfish","Golani et. al 2007 Biology Letters 3:541-545","Egypt","MAL",26.6,34.02,NA,"2005","control region",15,390,0.99,NA,NA,NA
"407","Fistularia commersonii","Bluespotted cornetfish","Golani et. al 2007 Biology Letters 3:541-545","Greece","RHO",35.96,27.61,NA,"2005","control region",21,390,0.181,NA,NA,NA
"408","Fistularia commersonii","Bluespotted cornetfish","Golani et. al 2007 Biology Letters 3:541-545","Israel","EIL",29.44,34.92,NA,"2005","control region",29,390,0.998,NA,NA,NA
"409","Fistularia commersonii","Bluespotted cornetfish","Golani et. al 2007 Biology Letters 3:541-545","Israel","HAI",32.5,34.81,NA,"2005","control region",12,390,0,NA,NA,NA
"410","Fistularia commersonii","Bluespotted cornetfish","Golani et. al 2007 Biology Letters 3:541-545","Italy","LAM",35.38,12.43,NA,"2005","control region",12,390,0.6,NA,NA,NA
"411","Forsterygion lapillum","Common triplefin","Hickey et. al 2009 Molecular Ecology 18:680-697","New Zealand","Bluff",-45.4166666666667,168.333333333333,NA,"","control region",10,400,0.2,0.154,0.001,0.001
"412","Forsterygion lapillum","Common triplefin","Hickey et. al 2009 Molecular Ecology 18:680-697","New Zealand","Catlins",-45.6333333333333,169.783333333333,NA,"","control region",13,400,0.628,0.143,0.007,0.005
"413","Forsterygion lapillum","Common triplefin","Hickey et. al 2009 Molecular Ecology 18:680-697","New Zealand","Doubtful Sound. Fiordland",-44.7666666666667,166.85,NA,"","control region",23,400,0.609,0.103,0.006,0.004
"414","Forsterygion lapillum","Common triplefin","Hickey et. al 2009 Molecular Ecology 18:680-697","New Zealand","Great Barrier Is",-35.8333333333333,175.333333333333,NA,"","control region",10,400,0.949,0.051,0.011,0.007
"415","Forsterygion lapillum","Common triplefin","Hickey et. al 2009 Molecular Ecology 18:680-697","New Zealand","Hauraki Gulf",-34.1,175.083333333333,NA,"","control region",28,400,0.977,0.016,0.014,0.008
"416","Forsterygion lapillum","Common triplefin","Hickey et. al 2009 Molecular Ecology 18:680-697","New Zealand","Kaikoura",-41.6,173.7,NA,"","control region",11,400,0.727,0.144,0.009,0.006
"417","Forsterygion lapillum","Common triplefin","Hickey et. al 2009 Molecular Ecology 18:680-697","New Zealand","Kaipara",-35.75,174.233333333333,NA,"","control region",4,400,1,0.177,0.015,0.011
"418","Forsterygion lapillum","Common triplefin","Hickey et. al 2009 Molecular Ecology 18:680-697","New Zealand","Napier",-38.5333333333333,176.883333333333,NA,"","control region",12,400,0.924,0.058,0.008,0.005
"419","Forsterygion lapillum","Common triplefin","Hickey et. al 2009 Molecular Ecology 18:680-697","New Zealand","New Plysmouth",-38.95,174.566666666667,NA,"","control region",8,400,0.929,0.084,0.007,0.005
"420","Forsterygion lapillum","Common triplefin","Hickey et. al 2009 Molecular Ecology 18:680-697","New Zealand","Otago",-44.1833333333333,170.65,NA,"","control region",11,400,0.346,0.172,0.002,0.002
"421","Forsterygion lapillum","Common triplefin","Hickey et. al 2009 Molecular Ecology 18:680-697","New Zealand","Wellington",-40.9166666666667,174.85,NA,"","control region",8,400,0.929,0.084,0.007,0.005
"422","Forsterygion varium","Striped triplefin","Hickey et. al 2009 Molecular Ecology 18:680-697","New Zealand","Bluff",-45.4166666666667,168.333333333333,NA,"","control region",15,400,0.838,0.085,0.019,0.01
"423","Forsterygion varium","Striped triplefin","Hickey et. al 2009 Molecular Ecology 18:680-697","New Zealand","Doubtful Sound. Fiordland",-44.7666666666667,166.85,NA,"","control region",10,400,0.933,0.062,0.019,0.011
"424","Forsterygion varium","Striped triplefin","Hickey et. al 2009 Molecular Ecology 18:680-697","New Zealand","Great Barrier Is",-35.8333333333333,175.333333333333,NA,"","control region",18,400,0.974,0.029,0.019,0.011
"425","Forsterygion varium","Striped triplefin","Hickey et. al 2009 Molecular Ecology 18:680-697","New Zealand","Hauraki Gulf",-34.1,175.083333333333,NA,"","control region",16,400,0.925,0.05,0.018,0.01
"426","Forsterygion varium","Striped triplefin","Hickey et. al 2009 Molecular Ecology 18:680-697","New Zealand","Otago",-44.1833333333333,170.65,NA,"","control region",19,400,0.805,0.09,0.018,0.01
"427","Forsterygion varium","Striped triplefin","Hickey et. al 2009 Molecular Ecology 18:680-697","New Zealand","Three Kings",-33.8666666666667,172.133333333333,NA,"","control region",33,400,0.618,0.081,0.012,0.007
"428","Forsterygion varium","Striped triplefin","Hickey et. al 2009 Molecular Ecology 18:680-697","New Zealand","Wellington",-40.9166666666667,174.85,NA,"","control region",6,400,0.933,0.121,0.015,0.009
"429","Gadus macrocephalus","Pacific cod","Canino et al. 2010 Molecular Ecology 19:4339-4351","Canada","Hecate Strait",53.0175,-129.914722222222,"PCODHS","2004","ND2/Cytb",34,1509,0.9679,NA,0.004,NA
"430","Gadus macrocephalus","Pacific cod","Canino et al. 2010 Molecular Ecology 19:4339-4351","Japan","Sea of Okhotsk",44.0333333333333,135.083888888889,NA,"2005","ND2/Cytb",34,1509,0.9768,NA,0.003,NA
"431","Gadus macrocephalus","Pacific cod","Canino et al. 2010 Molecular Ecology 19:4339-4351","Korea","East China Sea",38.0858333333333,128.067222222222,NA,"2005","ND2/Cytb",34,1509,0.9234,NA,0.003,NA
"432","Gadus macrocephalus","Pacific cod","Canino et al. 2010 Molecular Ecology 19:4339-4351","USA","Adak Island (AK)",51.0666666666667,-175.948333333333,"PCODBSAI","2006","ND2/Cytb",36,1509,0.9397,NA,0.004,NA
"433","Gadus macrocephalus","Pacific cod","Canino et al. 2010 Molecular Ecology 19:4339-4351","USA","Coastal Washington",47.0847222222222,-124.949166666667,NA,"2005","ND2/Cytb",37,1509,0.9745,NA,0.003,NA
"434","Gadus macrocephalus","Pacific cod","Canino et al. 2010 Molecular Ecology 19:4339-4351","USA","Kodiak Island (AK)",57.0688888888889,-151.949722222222,"PCODGA","2003","ND2/Cytb",33,1509,0.9773,NA,0.004,NA
"435","Gadus macrocephalus","Pacific cod","Canino et al. 2010 Molecular Ecology 19:4339-4351","USA","Near Islands (AK)",52.0502777777778,173.083888888889,"PCODBSAI","2006","ND2/Cytb",36,1509,0.9841,NA,0.004,NA
"436","Gadus macrocephalus","Pacific cod","Canino et al. 2010 Molecular Ecology 19:4339-4351","USA","Puget Sound",47.0513888888889,-121.95,NA,"2006","ND2/Cytb",32,1509,0.9456,NA,0.004,NA
"437","Gadus macrocephalus","Pacific cod","Canino et al. 2010 Molecular Ecology 19:4339-4351","USA","Strait of Georgia",48.0844444444444,-122.998333333333,"PCODWCVANI","2003","ND2/Cytb",35,1509,0.9529,NA,0.004,NA
"438","Gadus macrocephalus","Pacific cod","Canino et al. 2010 Molecular Ecology 19:4339-4351","USA","Unimak Pass (AK)",54.0522222222222,-167.983333333333,"PCODBSAI","2003","ND2/Cytb",35,1509,0.9328,NA,0.003,NA
"439","Gadus macrocephalus","Pacific cod","Liu et al. 2010 Journal of Fish Biology 77:1071-1082 ","Northwestern Pacific Ocean ","Aleutian Island",50,180,"PCODBSAI","2005","control region",21,452,0.49,NA,0.099,NA
"440","Gadus macrocephalus","Pacific cod","Liu et al. 2010 Journal of Fish Biology 77:1071-1082 ","Northwestern Pacific Ocean ","Eastern Hokkaido",43,140,NA,"2004","control region",44,452,0.59,NA,0.069,NA
"441","Gadus macrocephalus","Pacific cod","Liu et al. 2010 Journal of Fish Biology 77:1071-1082 ","Northwestern Pacific Ocean ","Gulf of Georgia",46,130,NA,"2003","control region",20,452,0.42,NA,0.022,NA
"442","Gadus macrocephalus","Pacific cod","Liu et al. 2010 Journal of Fish Biology 77:1071-1082 ","Northwestern Pacific Ocean ","Hecate Strait",51,135,NA,"2004","control region",24,452,0.58,NA,0.074,NA
"443","Gadus macrocephalus","Pacific cod","Liu et al. 2010 Journal of Fish Biology 77:1071-1082 ","Northwestern Pacific Ocean ","Kodial Island",55,155,NA,"2003","control region",22,452,0.41,NA,0.081,NA
"444","Gadus macrocephalus","Pacific cod","Liu et al. 2010 Journal of Fish Biology 77:1071-1082 ","Northwestern Pacific Ocean ","Okhotsk Sea",46,150,NA,"2004","control region",44,452,0.59,NA,0.04,NA
"445","Gadus macrocephalus","Pacific cod","Liu et al. 2010 Journal of Fish Biology 77:1071-1082 ","Northwestern Pacific Ocean ","Sea of Japan",44,137,NA,"2005","control region",27,452,0.71,NA,0.12,NA
"446","Gadus macrocephalus","Pacific cod","Liu et al. 2010 Journal of Fish Biology 77:1071-1082 ","Northwestern Pacific Ocean ","Unimak Pass",51,175,"PCODBSAI","2003","control region",18,452,0.63,NA,0.123,NA
"447","Gadus macrocephalus","Pacific cod","Liu et al. 2010 Journal of Fish Biology 77:1071-1082 ","Northwestern Pacific Ocean ","Yellow Sea",41,125,NA,"2005","control region",39,452,0.55,NA,0.065,NA
"448","Gadus macrocephalus","Pacific cod ","Gwak & Nakayama 2011 Fisheries Science 77:945-952","South Korea ","Boryeong ",36.3514,126.4917,NA,"2007","control region",74,584,0.472,NA,9e-04,NA
"449","Gadus macrocephalus","Pacific cod ","Gwak & Nakayama 2011 Fisheries Science 77:945-952","South Korea ","Jinhae ",35.0657,128.7202,NA,"2007","control region",54,584,0.206,NA,3e-04,NA
"450","Gadus macrocephalus","Pacific cod ","Gwak & Nakayama 2011 Fisheries Science 77:945-952","South Korea ","Jukbyeon",37.0593,129.439,NA,"2006","control region",56,584,0.553,NA,0.0018,NA
"451","Gadus morhua","Atlantic cod","Carr et al. 1995","Canada","Chance Cove, inner part of Trinity Bay",47.665,-52.8663888888889,"COD2J3KL","1990","cytb",47,307,0.2379,NA,0.0011,NA
"452","Gadus morhua","Atlantic cod","Carr et al. 1995","Canada","Flatrock , east coast of Avalon Peninsula north of St. John's",47.695,-52.6177777777778,"COD2J3KL","1989","cytb",88,307,0.3457,NA,0.001591,NA
"453","Gadus morhua","Atlantic cod","Carr et al. 1995","Canada","Heart's Ease Ledge, near Random Island",48,-53,"COD2J3KL","1993","cytb",33,307,0.2275,NA,0.001104,NA
"454","Gadus morhua","Atlantic cod","Carr et al. 1995","Canada","Northern Grand Banks",48.8,-51,"COD2J3KL","1988","cytb",21,307,0.1812,NA,0.001494,NA
"455","Gadus morhua","Atlantic cod","Carr et al. 1995","Canada","Random Island, west side of Trinity Bay",48.173,-52.8825,"COD2J3KL","1991","cytb",47,307,0.2745,NA,0.0011,NA
"456","Ginglymostoma cirratum","Nurse shark","Karl et al. 2012 Marine Biology 159:489-498","Bahamas","BMN",27.44979,-76.391603,NA,"","control region and mitochondrial cytochrome c oxidase I",21,1166,0.43,NA,4e-04,NA
"457","Ginglymostoma cirratum","Nurse shark","Karl et al. 2012 Marine Biology 159:489-498","Belize","BLZ",18.062312,-86.323244,NA,"","control region and mitochondrial cytochrome c oxidase I",33,1166,0.49,NA,4e-04,NA
"458","Ginglymostoma cirratum","Nurse shark","Karl et al. 2012 Marine Biology 159:489-498","Brazil","BRI",1.142502,-31.655275,NA,"","control region and mitochondrial cytochrome c oxidase I",37,1166,0.43,NA,4e-04,NA
"459","Ginglymostoma cirratum","Nurse shark","Karl et al. 2012 Marine Biology 159:489-498","Brazil","NTL",-5.771085,-35.199566,NA,"","control region and mitochondrial cytochrome c oxidase I",15,1166,0.56,NA,5e-04,NA
"460","Ginglymostoma cirratum","Nurse shark","Karl et al. 2012 Marine Biology 159:489-498","USA","FLD",29.380941,-83.199384,NA,"","control region and mitochondrial cytochrome c oxidase I",37,1166,0.16,NA,1e-04,NA
"461","Girella punctata","","Saito et. al 2008 Journal of Fish Biology 73:1937-1945","Japan","Goto Islands",32.6,128.7,NA,"","control region",30,450,0.94,0.005842374,0.0091,0.000949386
"462","Girella punctata","","Saito et. al 2008 Journal of Fish Biology 73:1937-1945","Japan","Hachijojima Island",33,140,NA,"","control region",12,450,0.893,0.022516661,0.0069,0.001270171
"463","Girella punctata","","Saito et. al 2008 Journal of Fish Biology 73:1937-1945","Japan","Izumi",31.3,130.6,NA,"","control region",44,450,0.912,0.00452267,0.0089,0.000753778
"464","Girella punctata","","Saito et. al 2008 Journal of Fish Biology 73:1937-1945","Japan","Joetsu",37.2,138.4,NA,"","control region",20,450,0.805,0.020124612,0.0083,0.001095673
"465","Girella punctata","","Saito et. al 2008 Journal of Fish Biology 73:1937-1945","Japan","Kashima",36.1,140.6,NA,"","control region",35,450,0.955,0.00405674,0.0093,0.00087896
"466","Girella punctata","","Saito et. al 2008 Journal of Fish Biology 73:1937-1945","Japan","Kawasaki",35.6,139.9,NA,"","control region",28,450,0.968,0.004535574,0.0102,0.001096097
"467","Girella punctata","","Saito et. al 2008 Journal of Fish Biology 73:1937-1945","Japan","Muroto",33.2,134.1,NA,"","control region",26,450,0.935,0.007452413,0.0086,0.000960969
"468","Girella punctata","","Saito et. al 2008 Journal of Fish Biology 73:1937-1945","Japan","Sakai",35.5,133.1,NA,"","control region",29,450,0.902,0.008913376,0.009,0.000947046
"469","Girella punctata","","Saito et. al 2008 Journal of Fish Biology 73:1937-1945","Japan","Shimoda",34.5,138.8,NA,"","control region",25,450,0.933,0.0072,0.0082,0.00096
"470","Glyptocephalus stelleri","Blackfin flounder","Xiao et. al 2010 Biochemical Genetics 48:402-417","Japan","Dosei",44.6166666666667,141.083333333333,NA,"2005","HVR I",35,435,0.99,0.002366432,0.017,0.001521278
"471","Glyptocephalus stelleri","Blackfin flounder","Xiao et. al 2010 Biochemical Genetics 48:402-417","Japan","Doto",42.6666666666667,144,NA,"2005","HVR I",24,435,0.99,0.000816497,0.011,0.001224745
"472","Glyptocephalus stelleri","Blackfin flounder","Xiao et. al 2010 Biochemical Genetics 48:402-417","Japan","Monbetu",44.6,143.6,NA,"2004","HVR I",28,435,0.98,0.002645751,0.014,0.001511858
"473","Glyptocephalus stelleri","Blackfin flounder","Xiao et. al 2010 Biochemical Genetics 48:402-417","Japan","Sea of Okhotsk",44,143,NA,"2004","HVR I",28,435,0.98,0.002645751,0.014,0.001511858
"474","Glyptocephalus stelleri","Blackfin flounder","Xiao et. al 2010 Biochemical Genetics 48:402-417","Japan","Tohoku",39.4,142.7,NA,"2004","HVR I",28,435,0.99,0.002645751,0.015,0.001511858
"475","Glyptocephalus stelleri","Blackfin flounder","Xiao et. al 2010 Biochemical Genetics 48:402-417","Japan","Tottori",36.3833333333333,133.783333333333,NA,"2004","HVR I",28,435,0.98,0.003023716,0.014,0.001511858
"476","Grahamina capito","Spotted robust triplefin","Hickey et. al 2009 Molecular Ecology 18:680-697","New Zealand","Banks Peninsula",-42.4166666666667,172.716666666667,NA,"","control region",40,400,0.988,0.009,0.037,0.029
"477","Grahamina capito","Spotted robust triplefin","Hickey et. al 2009 Molecular Ecology 18:680-697","New Zealand","Bluff",-45.4166666666667,168.333333333333,NA,"","control region",60,400,0.586,0.072,0.007,0.004
"478","Grahamina capito","Spotted robust triplefin","Hickey et. al 2009 Molecular Ecology 18:680-697","New Zealand","Chatham Islands",-42.15,-175.55,NA,"","control region",5,400,1,0.127,0.008,0.006
"479","Grahamina capito","Spotted robust triplefin","Hickey et. al 2009 Molecular Ecology 18:680-697","New Zealand","Doubtful Sound. Fiordland",-44.7666666666667,166.85,NA,"","control region",10,400,0.356,0.159,0.001,0.001
"480","Grahamina capito","Spotted robust triplefin","Hickey et. al 2009 Molecular Ecology 18:680-697","New Zealand","Hauraki Gulf",-34.1,175.083333333333,NA,"","control region",10,400,0.844,0.102,0.008,0.006
"481","Grahamina capito","Spotted robust triplefin","Hickey et. al 2009 Molecular Ecology 18:680-697","New Zealand","Kaikoura",-41.6,173.7,NA,"","control region",4,400,1,0.167,0.043,0.029
"482","Grahamina capito","Spotted robust triplefin","Hickey et. al 2009 Molecular Ecology 18:680-697","New Zealand","Kaipara",-35.75,174.233333333333,NA,"","control region",24,400,0.993,0.014,0.026,0.014
"483","Grahamina capito","Spotted robust triplefin","Hickey et. al 2009 Molecular Ecology 18:680-697","New Zealand","Napier",-38.5333333333333,176.883333333333,NA,"","control region",27,400,0.993,0.012,0.022,0.012
"484","Grahamina capito","Spotted robust triplefin","Hickey et. al 2009 Molecular Ecology 18:680-697","New Zealand","Nelson",-40.7333333333333,173.233333333333,NA,"","control region",8,400,1,0.063,0.026,0.016
"485","Grahamina capito","Spotted robust triplefin","Hickey et. al 2009 Molecular Ecology 18:680-697","New Zealand","New Plysmouth",-38.95,174.566666666667,NA,"","control region",10,400,0.979,0.054,0.023,0.013
"486","Grahamina capito","Spotted robust triplefin","Hickey et. al 2009 Molecular Ecology 18:680-697","New Zealand","Otago",-44.1833333333333,170.65,NA,"","control region",57,400,0.709,0.042,0.045,0.003
"487","Grahamina capito","Spotted robust triplefin","Hickey et. al 2009 Molecular Ecology 18:680-697","New Zealand","Wellington",-40.9166666666667,174.85,NA,"","control region",7,400,1,0.076,0.021,0.013
"488","Grahamina gymnota","Tasmanian robust triplefin","Hickey et. al 2009 Molecular Ecology 18:680-697","New Zealand","Banks Peninsula",-42.4166666666667,172.716666666667,NA,"","control region",5,400,1,0.127,0.025,0.017
"489","Grahamina gymnota","Tasmanian robust triplefin","Hickey et. al 2009 Molecular Ecology 18:680-697","New Zealand","Bluff",-45.4166666666667,168.333333333333,NA,"","control region",6,400,1,0.096,0.024,0.015
"490","Grahamina gymnota","Tasmanian robust triplefin","Hickey et. al 2009 Molecular Ecology 18:680-697","New Zealand","Hauraki Gulf",-34.1,175.083333333333,NA,"","control region",6,400,0.933,0.122,0.024,0.015
"491","Grahamina gymnota","Tasmanian robust triplefin","Hickey et. al 2009 Molecular Ecology 18:680-697","New Zealand","Kaipara",-35.75,174.233333333333,NA,"","control region",12,400,1,0.034,0.031,0.017
"492","Grahamina gymnota","Tasmanian robust triplefin","Hickey et. al 2009 Molecular Ecology 18:680-697","New Zealand","Nelson",-40.7333333333333,173.233333333333,NA,"","control region",6,400,1,0.045,0.037,0.021
"493","Grahamina gymnota","Tasmanian robust triplefin","Hickey et. al 2009 Molecular Ecology 18:680-697","New Zealand","Te Arai Point",-35.9,174.633333333333,NA,"","control region",11,400,1,0.038,0.032,0.018
"494","Grahamina gymnota","Tasmanian robust triplefin","Hickey et. al 2009 Molecular Ecology 18:680-697","New Zealand","Wellington",-40.9166666666667,174.85,NA,"","control region",14,400,1,0.027,0.033,0.018
"495","Grahamina nigripenne","Estuarine triplefin","Hickey et. al 2009 Molecular Ecology 18:680-697","New Zealand","Catlins",-45.6333333333333,169.783333333333,NA,"","control region",14,400,0.615,0.102,0.002,0.002
"496","Grahamina nigripenne","Estuarine triplefin","Hickey et. al 2009 Molecular Ecology 18:680-697","New Zealand","Doubtful Sound. Fiordland",-44.7666666666667,166.85,NA,"","control region",10,400,0,0,0,0
"497","Grahamina nigripenne","Estuarine triplefin","Hickey et. al 2009 Molecular Ecology 18:680-697","New Zealand","Great Barrier Is",-35.8333333333333,175.333333333333,NA,"","control region",13,400,0.615,0.136,0.002,0.002
"498","Grahamina nigripenne","Estuarine triplefin","Hickey et. al 2009 Molecular Ecology 18:680-697","New Zealand","Hauraki Gulf",-34.1,175.083333333333,NA,"","control region",25,400,0.84,0.049,0.005,0.004
"499","Grahamina nigripenne","Estuarine triplefin","Hickey et. al 2009 Molecular Ecology 18:680-697","New Zealand","New Plysmouth",-38.95,174.566666666667,NA,"","control region",5,400,0.758,0.078,0.004,0.003
"500","Grahamina nigripenne","Estuarine triplefin","Hickey et. al 2009 Molecular Ecology 18:680-697","New Zealand","Okuru West Coast",-42.1166666666667,168.9,NA,"","control region",5,400,0.166,0.134,0.001,0.001
"501","Grahamina nigripenne","Estuarine triplefin","Hickey et. al 2009 Molecular Ecology 18:680-697","New Zealand","Otago",-44.1833333333333,170.65,NA,"","control region",12,400,0,0,0,0
"502","Halichoeres cyanocephalus","Yellowcheek wrasse","Rocha 2004","Belize","Belize",17.225,-87.8833333333333,NA,"1997-2002","cytb",12,701,0.68,NA,0.002,NA
"503","Halichoeres cyanocephalus","Yellowcheek wrasse","Rocha 2004","Brazil","NE Brazil",-6.621,-37.9163888888889,NA,"1997-2002","cytb",5,701,0.9,NA,0.004,NA
"504","Halichoeres garnoti","Yellowhead wrasse","Rocha 2004","Bahamas","Bahamas",25.76,-76.9491666666667,NA,"1997-2002","cytb",21,701,0.97,NA,0.008,NA
"505","Halichoeres garnoti","Yellowhead wrasse","Rocha 2004","Belize","Belize",17.225,-87.8833333333333,NA,"1997-2002","cytb",21,701,0.95,NA,0.009,NA
"506","Halichoeres garnoti","Yellowhead wrasse","Rocha 2004","Bermuda","Bermuda",32.361,-63.8811111111111,NA,"1997-2002","cytb",27,701,0.97,NA,0.008,NA
